[
  {
    "id": "osm_way_145472454",
    "name": "Akademia Wychowania Fizycznego",
    "category": "gym",
    "coordinates": [
      19.0131582,
      50.2481159
    ],
    "address": "Katowice"
  },
  {
    "id": "osm_node_6374145431",
    "name": "Altus Fitness",
    "category": "gym",
    "coordinates": [
      19.024501,
      50.2617116
    ],
    "address": "Katowice"
  },
  {
    "id": "osm_node_2940544097",
    "name": "B-Fit Klub Fitness Katowice",
    "category": "gym",
    "coordinates": [
      19.0099246,
      50.2635345
    ],
    "address": "Dąbrówki 10, 41-081, Katowice"
  },
  {
    "id": "osm_way_775548324",
    "name": "Basen Brynów",
    "category": "gym",
    "coordinates": [
      19.0080258,
      50.2426109
    ],
    "address": "Tadeusza Kościuszki 104, 40-519, Katowice"
  },
  {
    "id": "osm_way_688759958",
    "name": "Basen Burowiec",
    "category": "gym",
    "coordinates": [
      19.0756131,
      50.2698754
    ],
    "address": "Konna 2, 40-002, Katowice"
  },
  {
    "id": "osm_way_960107629",
    "name": "Basen Zadole",
    "category": "gym",
    "coordinates": [
      18.965283,
      50.2186393
    ],
    "address": "Wczasowa 8A, 40-694, Katowice"
  },
  {
    "id": "osm_node_8324534108",
    "name": "Calypso",
    "category": "gym",
    "coordinates": [
      19.018446,
      50.2625435
    ],
    "address": "Katowice"
  },
  {
    "id": "osm_node_1924416955",
    "name": "Centrum Odnowy Biologicznej PULS",
    "category": "gym",
    "coordinates": [
      19.0284849,
      50.2558572
    ],
    "address": "Katowice"
  },
  {
    "id": "osm_node_4598769586",
    "name": "CityFit Katowice",
    "category": "gym",
    "coordinates": [
      19.0224644,
      50.258933
    ],
    "address": "Katowice"
  },
  {
    "id": "osm_node_3779408843",
    "name": "CrossFit",
    "category": "gym",
    "coordinates": [
      19.0742177,
      50.2772497
    ],
    "address": "Aleja Walentego Roździeńskiego 191, Katowice"
  },
  {
    "id": "osm_node_9999715846",
    "name": "CrossGym",
    "category": "gym",
    "coordinates": [
      19.0613949,
      50.2546728
    ],
    "address": "Katowice"
  },
  {
    "id": "osm_node_8188446157",
    "name": "Czas",
    "category": "gym",
    "coordinates": [
      19.021445,
      50.2615895
    ],
    "address": "Katowice"
  },
  {
    "id": "osm_node_4984595563",
    "name": "Fabryka Forma",
    "category": "gym",
    "coordinates": [
      19.0023543,
      50.2710662
    ],
    "address": "Katowice"
  },
  {
    "id": "osm_node_8341886346",
    "name": "Fabryka Formy",
    "category": "gym",
    "coordinates": [
      19.0364575,
      50.2424337
    ],
    "address": "Generała Kazimierza Pułaskiego 60, 40-028, Katowice"
  },
  {
    "id": "osm_node_10308456452",
    "name": "Gym for you",
    "category": "gym",
    "coordinates": [
      19.0288518,
      50.2835896
    ],
    "address": "Konduktorska 37, 40-155, Katowice"
  },
  {
    "id": "osm_way_192976919",
    "name": "Hala Sportowa Józefowska",
    "category": "gym",
    "coordinates": [
      19.0152312,
      50.2788771
    ],
    "address": "Katowice"
  },
  {
    "id": "osm_node_10105411587",
    "name": "Joga Ju-Jitsu",
    "category": "gym",
    "coordinates": [
      18.9865694,
      50.2331108
    ],
    "address": "Katowice"
  },
  {
    "id": "osm_node_2122612990",
    "name": "Joga Życia",
    "category": "gym",
    "coordinates": [
      19.0317822,
      50.2559635
    ],
    "address": "Świętego Jacka 1, 40-019, Katowice"
  },
  {
    "id": "osm_node_1939646541",
    "name": "Klub Bilardowy B8",
    "category": "gym",
    "coordinates": [
      19.0101524,
      50.2631928
    ],
    "address": "Dąbrówki 10, 40-081, Katowice"
  },
  {
    "id": "osm_way_236044505",
    "name": "Kopalnia Futbolu",
    "category": "gym",
    "coordinates": [
      19.0729349,
      50.2794433
    ],
    "address": "Milowicka 1f, 40-312, Katowice"
  },
  {
    "id": "osm_node_1939504089",
    "name": "Kręgielnia Galaktyka",
    "category": "gym",
    "coordinates": [
      19.0100923,
      50.2631855
    ],
    "address": "Dąbrówki 10, 40-081, Katowice"
  },
  {
    "id": "osm_node_9069475857",
    "name": "Laserhouse Katowice",
    "category": "gym",
    "coordinates": [
      19.0119192,
      50.2572037
    ],
    "address": "Katowice"
  },
  {
    "id": "osm_node_9522025622",
    "name": "LIMBO Bouldering",
    "category": "gym",
    "coordinates": [
      18.9718491,
      50.2301214
    ],
    "address": "Katowice"
  },
  {
    "id": "osm_node_8561237043",
    "name": "Maybe Crazy Studio Dance & Fitness",
    "category": "gym",
    "coordinates": [
      18.9911593,
      50.2447252
    ],
    "address": "Katowice"
  },
  {
    "id": "osm_node_5715133125",
    "name": "McFit",
    "category": "gym",
    "coordinates": [
      18.9698046,
      50.2855681
    ],
    "address": "Katowice"
  },
  {
    "id": "osm_way_849897293",
    "name": "Miasto Katowice",
    "category": "gym",
    "coordinates": [
      18.965117,
      50.2135407
    ],
    "address": "Adama Asnyka 27, 40-696, Katowice"
  },
  {
    "id": "osm_way_202044256",
    "name": "Międzyszkolny Ośrodek Sportowy",
    "category": "gym",
    "coordinates": [
      19.0362989,
      50.2505662
    ],
    "address": "Ignacego Jana Paderewskiego 46a, Katowice"
  },
  {
    "id": "osm_way_202117577",
    "name": "MMAtadores Katowice",
    "category": "gym",
    "coordinates": [
      18.991585,
      50.2449317
    ],
    "address": "Wincentego Pola 34, 40-596, Katowice"
  },
  {
    "id": "osm_way_294785168",
    "name": "MOSiR - Ośrodek rekreacyjno wypoczynkowy ROLNA",
    "category": "gym",
    "coordinates": [
      18.9852785,
      50.2285461
    ],
    "address": "Nasypowa 65, 40-551, Katowice"
  },
  {
    "id": "osm_way_344072354",
    "name": "MOSiR Katowice - Bugla",
    "category": "gym",
    "coordinates": [
      18.9934734,
      50.2529661
    ],
    "address": "Katowice"
  },
  {
    "id": "osm_way_1329478638",
    "name": "Ośrodek Sportowy „Hetman”",
    "category": "gym",
    "coordinates": [
      19.0632008,
      50.2773576
    ],
    "address": "Katowice"
  },
  {
    "id": "osm_way_387786501",
    "name": "Ośrodek Sportowy „Kolejarz”",
    "category": "gym",
    "coordinates": [
      19.0138612,
      50.2877719
    ],
    "address": "Katowice"
  },
  {
    "id": "osm_way_201897560",
    "name": "Ośrodek Sportowy „Szopienice”",
    "category": "gym",
    "coordinates": [
      19.0902847,
      50.2607551
    ],
    "address": "11 Listopada 16, 40-387, Katowice"
  },
  {
    "id": "osm_relation_14760199",
    "name": "Ośrodek Sportowy Gliwicka",
    "category": "gym",
    "coordinates": [
      18.9745903,
      50.2694617
    ],
    "address": "Katowice"
  },
  {
    "id": "osm_way_192976920",
    "name": "Ośrodek Sportowy Rapid",
    "category": "gym",
    "coordinates": [
      19.0161779,
      50.2703604
    ],
    "address": "Katowice"
  },
  {
    "id": "osm_way_70742752",
    "name": "Ośrodek Sportowy Słowian",
    "category": "gym",
    "coordinates": [
      19.0558044,
      50.2602251
    ],
    "address": "Katowice"
  },
  {
    "id": "osm_way_291529647",
    "name": "Ośrodek tenisowy \"Muchowiec\"",
    "category": "gym",
    "coordinates": [
      19.0278098,
      50.2310466
    ],
    "address": "Katowice"
  },
  {
    "id": "osm_way_392631657",
    "name": "Ośrodek Tenisowy MOSiR Katowice",
    "category": "gym",
    "coordinates": [
      19.0861886,
      50.2534609
    ],
    "address": "Katowice"
  },
  {
    "id": "osm_node_2486505764",
    "name": "Paco",
    "category": "gym",
    "coordinates": [
      19.0731306,
      50.2174585
    ],
    "address": "Katowice"
  },
  {
    "id": "osm_way_201606320",
    "name": "Panorama fitness",
    "category": "gym",
    "coordinates": [
      18.961065,
      50.2160254
    ],
    "address": "Studencka 22, 40-743, Katowice"
  },
  {
    "id": "osm_node_7792523051",
    "name": "Savitri Yoga",
    "category": "gym",
    "coordinates": [
      19.0133587,
      50.2604664
    ],
    "address": "Katowice"
  },
  {
    "id": "osm_node_9421112872",
    "name": "Siłownia MOSiR Katowice",
    "category": "gym",
    "coordinates": [
      18.9761824,
      50.1800419
    ],
    "address": "Katowice"
  },
  {
    "id": "osm_node_6134553302",
    "name": "Smart Gym",
    "category": "gym",
    "coordinates": [
      18.9824756,
      50.2356645
    ],
    "address": "Katowice"
  },
  {
    "id": "osm_node_6568643746",
    "name": "Smart Gym",
    "category": "gym",
    "coordinates": [
      19.0318751,
      50.2614703
    ],
    "address": "Katowice"
  },
  {
    "id": "osm_node_6565031802",
    "name": "Smart Gym Załęże",
    "category": "gym",
    "coordinates": [
      18.9861083,
      50.2630899
    ],
    "address": "Katowice"
  },
  {
    "id": "osm_node_5480889494",
    "name": "SmartGym",
    "category": "gym",
    "coordinates": [
      18.981263,
      50.2778931
    ],
    "address": "Katowice"
  },
  {
    "id": "osm_way_201888226",
    "name": "sports_centre",
    "category": "gym",
    "coordinates": [
      19.0704355,
      50.2225514
    ],
    "address": "Katowice"
  },
  {
    "id": "osm_way_425043598",
    "name": "sports_centre",
    "category": "gym",
    "coordinates": [
      19.0600579,
      50.2251248
    ],
    "address": "Katowice"
  },
  {
    "id": "osm_way_511262943",
    "name": "sports_centre",
    "category": "gym",
    "coordinates": [
      19.0759904,
      50.2699199
    ],
    "address": "Katowice"
  },
  {
    "id": "osm_way_685784162",
    "name": "sports_centre",
    "category": "gym",
    "coordinates": [
      19.008691,
      50.2431532
    ],
    "address": "Katowice"
  },
  {
    "id": "osm_way_798079890",
    "name": "sports_centre",
    "category": "gym",
    "coordinates": [
      19.1022536,
      50.2779522
    ],
    "address": "Katowice"
  },
  {
    "id": "osm_way_923285991",
    "name": "sports_centre",
    "category": "gym",
    "coordinates": [
      19.0932918,
      50.1912628
    ],
    "address": "Katowice"
  },
  {
    "id": "osm_way_1263488181",
    "name": "sports_centre",
    "category": "gym",
    "coordinates": [
      18.9642921,
      50.2185798
    ],
    "address": "Katowice"
  },
  {
    "id": "osm_way_1314669293",
    "name": "sports_centre",
    "category": "gym",
    "coordinates": [
      19.0011157,
      50.1801301
    ],
    "address": "Katowice"
  },
  {
    "id": "osm_way_1372208110",
    "name": "sports_centre",
    "category": "gym",
    "coordinates": [
      18.979704,
      50.2512189
    ],
    "address": "Katowice"
  },
  {
    "id": "osm_node_9215974838",
    "name": "Squash Arena",
    "category": "gym",
    "coordinates": [
      19.0096831,
      50.2427446
    ],
    "address": "Katowice"
  },
  {
    "id": "osm_node_8089568250",
    "name": "Strzelnica Silesia Shotgun",
    "category": "gym",
    "coordinates": [
      19.0062406,
      50.2648633
    ],
    "address": "Katowice"
  },
  {
    "id": "osm_node_7397548888",
    "name": "Studio Pilates Harmonia",
    "category": "gym",
    "coordinates": [
      18.9382932,
      50.1818865
    ],
    "address": "Katowice"
  },
  {
    "id": "osm_node_12070177522",
    "name": "Studio Synergy",
    "category": "gym",
    "coordinates": [
      19.0219869,
      50.2563402
    ],
    "address": "Katowice"
  },
  {
    "id": "osm_node_8801107668",
    "name": "Surja Joga Maria Puls",
    "category": "gym",
    "coordinates": [
      19.0155781,
      50.255243
    ],
    "address": "Katowice"
  },
  {
    "id": "osm_way_178489899",
    "name": "Środowiskowy Klub Wodniacko-Wędkarski Maroko",
    "category": "gym",
    "coordinates": [
      18.9792489,
      50.2738238
    ],
    "address": "Katowice"
  },
  {
    "id": "osm_node_10925056140",
    "name": "Valhalla",
    "category": "gym",
    "coordinates": [
      19.0279924,
      50.2683848
    ],
    "address": "Katowice"
  },
  {
    "id": "osm_node_8934037413",
    "name": "Well Fitness",
    "category": "gym",
    "coordinates": [
      18.9821324,
      50.2078926
    ],
    "address": "Katowice"
  },
  {
    "id": "osm_node_9776417208",
    "name": "Well Fitness",
    "category": "gym",
    "coordinates": [
      19.0484235,
      50.2659418
    ],
    "address": "Katowice"
  },
  {
    "id": "osm_node_13704118909",
    "name": "Well Fitness",
    "category": "gym",
    "coordinates": [
      19.0204438,
      50.279107
    ],
    "address": "Katowice"
  },
  {
    "id": "osm_node_1995983632",
    "name": "Biblioteka Główna Śląskiego Uniwersytetu Medycznego",
    "category": "library",
    "coordinates": [
      19.0257117,
      50.2592268
    ],
    "address": "Warszawska 14, 40-006, Katowice"
  },
  {
    "id": "osm_node_1927849389",
    "name": "Biblioteka Miejska filia nr 24",
    "category": "library",
    "coordinates": [
      19.0375444,
      50.2603911
    ],
    "address": "Aleja Walentego Roździeńskiego 88, 40-203, Katowice"
  },
  {
    "id": "osm_way_202044164",
    "name": "Biblioteka Śląska",
    "category": "library",
    "coordinates": [
      19.0314921,
      50.2522354
    ],
    "address": "Katowice"
  },
  {
    "id": "osm_way_202031551",
    "name": "Bibloteka Miejska filia nr 16",
    "category": "library",
    "coordinates": [
      19.0355425,
      50.2712649
    ],
    "address": "Wincentego Wajdy 21, 40-175, Katowice"
  },
  {
    "id": "osm_node_1927559874",
    "name": "Bibloteka Miejska filia nr 30",
    "category": "library",
    "coordinates": [
      19.0250156,
      50.2498959
    ],
    "address": "Rybnicka 11, 40-038, Katowice"
  },
  {
    "id": "osm_way_202259145",
    "name": "Centrum Informacji Naukowej i Biblioteka Akademicka",
    "category": "library",
    "coordinates": [
      19.0302417,
      50.2606304
    ],
    "address": "Bankowa 11a, 40-007, Katowice"
  },
  {
    "id": "osm_way_202162263",
    "name": "Filia nr 1 Miejska Biblioteka Publiczna w Katowicach",
    "category": "library",
    "coordinates": [
      19.0179241,
      50.2533143
    ],
    "address": "Juliusza Ligonia 7, 40-036, Katowice"
  },
  {
    "id": "osm_node_4262835389",
    "name": "Filia nr 26 Miejska Biblioteka Publiczna w Katowicach",
    "category": "library",
    "coordinates": [
      19.0432306,
      50.2025828
    ],
    "address": "Walerego Goetla 2, 40-749, Katowice"
  },
  {
    "id": "osm_node_1927849390",
    "name": "Filia nr 4 Miejska Biblioteka Publiczna w Katowicach",
    "category": "library",
    "coordinates": [
      19.0087532,
      50.2518795
    ],
    "address": "Katowice"
  },
  {
    "id": "osm_node_9864054502",
    "name": "Filia nr 5 Miejska Biblioteka Publiczna w Katowicach",
    "category": "library",
    "coordinates": [
      18.9640008,
      50.2311158
    ],
    "address": "Braci Mniejszych 2, 40-753, Katowice"
  },
  {
    "id": "osm_node_1828245462",
    "name": "Miejska Biblioteka Publiczna",
    "category": "library",
    "coordinates": [
      18.9955701,
      50.2335711
    ],
    "address": "Katowice"
  },
  {
    "id": "osm_way_178171251",
    "name": "Miejska Biblioteka Publiczna - Filia 14",
    "category": "library",
    "coordinates": [
      18.9849519,
      50.2725862
    ],
    "address": "Piastów 20, 40-868, Katowice"
  },
  {
    "id": "osm_node_1928626055",
    "name": "Miejska Biblioteka Publiczna - Filia 25",
    "category": "library",
    "coordinates": [
      18.9700781,
      50.2800221
    ],
    "address": "Katowice"
  },
  {
    "id": "osm_node_4897278300",
    "name": "Miejska Biblioteka Publiczna - filia nr 19",
    "category": "library",
    "coordinates": [
      19.0948359,
      50.2636201
    ],
    "address": "Obrońców Westerplatte 10, 40-379, Katowice"
  },
  {
    "id": "osm_node_1888239265",
    "name": "Miejska Biblioteka Publiczna - filia nr 20",
    "category": "library",
    "coordinates": [
      19.0683644,
      50.278167
    ],
    "address": "Strzelców Bytomskich 21, Katowice"
  },
  {
    "id": "osm_node_2290619654",
    "name": "Miejska Biblioteka Publiczna - filia nr 36",
    "category": "library",
    "coordinates": [
      19.0775732,
      50.2702727
    ],
    "address": "Generała Józefa Hallera 28, 40-335, Katowice"
  },
  {
    "id": "osm_node_3414599322",
    "name": "Miejska Biblioteka Publiczna Filia 10",
    "category": "library",
    "coordinates": [
      18.9880214,
      50.206139
    ],
    "address": "Katowice"
  },
  {
    "id": "osm_node_3459951411",
    "name": "Miejska Biblioteka Publiczna filia 22",
    "category": "library",
    "coordinates": [
      19.0475713,
      50.2689341
    ],
    "address": "Katowice"
  },
  {
    "id": "osm_node_1791544001",
    "name": "Miejska Biblioteka Publiczna Filia 32",
    "category": "library",
    "coordinates": [
      18.9800805,
      50.2307752
    ],
    "address": "Katowice"
  },
  {
    "id": "osm_node_3991650557",
    "name": "Miejska Biblioteka Publiczna Filia nr 13",
    "category": "library",
    "coordinates": [
      19.0206415,
      50.2588844
    ],
    "address": "Katowice"
  },
  {
    "id": "osm_node_1939646548",
    "name": "Miejska Biblioteka Publiczna Filia nr 15",
    "category": "library",
    "coordinates": [
      19.0712217,
      50.2236699
    ],
    "address": "Przyjazna 7a, 40-466, Katowice"
  },
  {
    "id": "osm_node_2825720409",
    "name": "Miejska Biblioteka Publiczna filia nr 18",
    "category": "library",
    "coordinates": [
      18.9590758,
      50.2158701
    ],
    "address": "Studencka 16, 40-743, Katowice"
  },
  {
    "id": "osm_node_6485180573",
    "name": "Miejska Biblioteka Publiczna Filia nr 27",
    "category": "library",
    "coordinates": [
      18.9957773,
      50.1926628
    ],
    "address": "Szarych Szeregów 62, 40-750, Katowice"
  },
  {
    "id": "osm_node_6763946100",
    "name": "Miejska Biblioteka Publiczna Filia nr 28",
    "category": "library",
    "coordinates": [
      18.9663227,
      50.1773371
    ],
    "address": "Uniczowska 38, 40-748, Katowice"
  },
  {
    "id": "osm_way_202200676",
    "name": "Miejska Biblioteka Publiczna Filia nr 3",
    "category": "library",
    "coordinates": [
      19.0012852,
      50.2647288
    ],
    "address": "Gliwicka 93, Katowice"
  },
  {
    "id": "osm_node_2383333060",
    "name": "Miejska Biblioteka Publiczna Filia nr 31",
    "category": "library",
    "coordinates": [
      19.0588612,
      50.2613681
    ],
    "address": "Katowice"
  },
  {
    "id": "osm_node_2478079225",
    "name": "Miejska Biblioteka Publiczna Filia nr 35 obcojęzyczna",
    "category": "library",
    "coordinates": [
      19.0158838,
      50.2600284
    ],
    "address": "Juliusza Słowackiego 20, Katowice"
  },
  {
    "id": "osm_node_2041487411",
    "name": "Miejska Biblioteka Publiczna Filia nr 5 młodzieżowa",
    "category": "library",
    "coordinates": [
      18.97279,
      50.2280372
    ],
    "address": "Franciszkańska 33, Katowice"
  },
  {
    "id": "osm_way_1205264805",
    "name": "Miejska Biblioteka Publiczna Filia nr 6",
    "category": "library",
    "coordinates": [
      19.0099668,
      50.2852135
    ],
    "address": "Bytomska 8a, Katowice"
  },
  {
    "id": "osm_node_2120921449",
    "name": "Miejska Biblioteka Publiczna w Katowicach Filia nr 12",
    "category": "library",
    "coordinates": [
      18.9711118,
      50.2583769
    ],
    "address": "Katowice"
  },
  {
    "id": "osm_node_2760615230",
    "name": "Miejska Biblioteka Publiczna w Katowicach Filia nr 17",
    "category": "library",
    "coordinates": [
      19.0058037,
      50.2776112
    ],
    "address": "Katowice"
  },
  {
    "id": "osm_node_9989525934",
    "name": "Miejska Biblioteka Publiczna w Katowicach Filia nr 23",
    "category": "library",
    "coordinates": [
      19.0387686,
      50.2492807
    ],
    "address": "Ignacego Jana Paderewskiego 65, 40-283, Katowice"
  },
  {
    "id": "osm_node_631025258",
    "name": "Miejska Biblioteka Publiczna w Katowicach Filia nr 33",
    "category": "library",
    "coordinates": [
      19.0415051,
      50.2642832
    ],
    "address": "Katowice"
  },
  {
    "id": "osm_node_9629108280",
    "name": "4 Pory Roku",
    "category": "pharmacy",
    "coordinates": [
      19.0196981,
      50.2545461
    ],
    "address": "Katowice"
  },
  {
    "id": "osm_node_9629769575",
    "name": "4 Pory Roku",
    "category": "pharmacy",
    "coordinates": [
      18.9907994,
      50.2203289
    ],
    "address": "Katowice"
  },
  {
    "id": "osm_node_9630416790",
    "name": "Agafarmax",
    "category": "pharmacy",
    "coordinates": [
      19.0599265,
      50.2235892
    ],
    "address": "Katowice"
  },
  {
    "id": "osm_node_8565884344",
    "name": "AGAfarmax",
    "category": "pharmacy",
    "coordinates": [
      19.0088052,
      50.2518617
    ],
    "address": "Katowice"
  },
  {
    "id": "osm_node_1890402846",
    "name": "Akademicka",
    "category": "pharmacy",
    "coordinates": [
      18.9758686,
      50.2760568
    ],
    "address": "Katowice"
  },
  {
    "id": "osm_node_8892091751",
    "name": "Aloes",
    "category": "pharmacy",
    "coordinates": [
      19.0461822,
      50.2694895
    ],
    "address": "Karpacka 14, 40-216, Katowice"
  },
  {
    "id": "osm_node_9630252077",
    "name": "Angelius",
    "category": "pharmacy",
    "coordinates": [
      18.9847632,
      50.2166309
    ],
    "address": "Katowice"
  },
  {
    "id": "osm_node_4387279022",
    "name": "Apteka",
    "category": "pharmacy",
    "coordinates": [
      18.9986599,
      50.2728774
    ],
    "address": "Katowice"
  },
  {
    "id": "osm_node_833674156",
    "name": "Apteka \"Główna\"",
    "category": "pharmacy",
    "coordinates": [
      19.0944159,
      50.2629011
    ],
    "address": "Katowice"
  },
  {
    "id": "osm_node_833674157",
    "name": "Apteka \"Pod kwiatami\"",
    "category": "pharmacy",
    "coordinates": [
      19.0991859,
      50.2624036
    ],
    "address": "Wiosny Ludów 21, 40-374, Katowice"
  },
  {
    "id": "osm_node_3358377258",
    "name": "Apteka \"Pod kwiatami\"",
    "category": "pharmacy",
    "coordinates": [
      19.0949811,
      50.2629059
    ],
    "address": "Katowice"
  },
  {
    "id": "osm_node_2117925302",
    "name": "Apteka „Salix”",
    "category": "pharmacy",
    "coordinates": [
      18.990122,
      50.1935128
    ],
    "address": "Katowice"
  },
  {
    "id": "osm_node_9629108285",
    "name": "Apteka „Salix” s.c.",
    "category": "pharmacy",
    "coordinates": [
      18.970538,
      50.1758911
    ],
    "address": "Katowice"
  },
  {
    "id": "osm_node_9629769577",
    "name": "Apteka 4 Pory Roku",
    "category": "pharmacy",
    "coordinates": [
      19.0397861,
      50.2578369
    ],
    "address": "Katowice"
  },
  {
    "id": "osm_node_9630466541",
    "name": "Apteka 4 Pory Roku",
    "category": "pharmacy",
    "coordinates": [
      19.0079936,
      50.236535
    ],
    "address": "Katowice"
  },
  {
    "id": "osm_node_2135950522",
    "name": "Apteka Aqua-Vitae",
    "category": "pharmacy",
    "coordinates": [
      19.0205739,
      50.2701975
    ],
    "address": "Katowice"
  },
  {
    "id": "osm_node_1940652745",
    "name": "Apteka Blisko Ciebie",
    "category": "pharmacy",
    "coordinates": [
      19.0199742,
      50.2603373
    ],
    "address": "Adama Mickiewicza 10, 40-092, Katowice"
  },
  {
    "id": "osm_node_6244099401",
    "name": "Apteka C-Plus",
    "category": "pharmacy",
    "coordinates": [
      18.9861858,
      50.2053721
    ],
    "address": "Katowice"
  },
  {
    "id": "osm_node_2508301888",
    "name": "Apteka Centralna",
    "category": "pharmacy",
    "coordinates": [
      18.9847603,
      50.2110943
    ],
    "address": "Katowice"
  },
  {
    "id": "osm_node_4829640929",
    "name": "Apteka Centrum",
    "category": "pharmacy",
    "coordinates": [
      19.0147067,
      50.2831717
    ],
    "address": "Katowice"
  },
  {
    "id": "osm_node_9629148462",
    "name": "Apteka Dbam O Zdrowie",
    "category": "pharmacy",
    "coordinates": [
      18.95125,
      50.2239028
    ],
    "address": "Katowice"
  },
  {
    "id": "osm_node_1789047067",
    "name": "Apteka Dla Zdrowia",
    "category": "pharmacy",
    "coordinates": [
      18.9667347,
      50.281771
    ],
    "address": "Katowice"
  },
  {
    "id": "osm_node_839030298",
    "name": "Apteka Dr.Max",
    "category": "pharmacy",
    "coordinates": [
      19.0688621,
      50.277164
    ],
    "address": "Katowice"
  },
  {
    "id": "osm_node_3597082405",
    "name": "Apteka Dr.Max",
    "category": "pharmacy",
    "coordinates": [
      19.0219364,
      50.2561536
    ],
    "address": "Katowice"
  },
  {
    "id": "osm_node_3907011313",
    "name": "Apteka Europejska",
    "category": "pharmacy",
    "coordinates": [
      19.0056964,
      50.2713103
    ],
    "address": "Katowice"
  },
  {
    "id": "osm_node_9629769573",
    "name": "Apteka Farmaceutów",
    "category": "pharmacy",
    "coordinates": [
      18.9802244,
      50.2094191
    ],
    "address": "Katowice"
  },
  {
    "id": "osm_node_1940652746",
    "name": "Apteka Główna",
    "category": "pharmacy",
    "coordinates": [
      19.0082413,
      50.2527873
    ],
    "address": "Mikołowska 37, 40-066, Katowice"
  },
  {
    "id": "osm_node_3168085028",
    "name": "Apteka Główna",
    "category": "pharmacy",
    "coordinates": [
      19.018408,
      50.2590606
    ],
    "address": "Katowice"
  },
  {
    "id": "osm_node_9630466536",
    "name": "Apteka Główna",
    "category": "pharmacy",
    "coordinates": [
      18.9821756,
      50.2078024
    ],
    "address": "Katowice"
  },
  {
    "id": "osm_node_9630416791",
    "name": "Apteka Grosik",
    "category": "pharmacy",
    "coordinates": [
      19.0906805,
      50.2413682
    ],
    "address": "Katowice"
  },
  {
    "id": "osm_node_9630416792",
    "name": "Apteka Isofarm",
    "category": "pharmacy",
    "coordinates": [
      19.090015,
      50.2417286
    ],
    "address": "Katowice"
  },
  {
    "id": "osm_node_1626774117",
    "name": "Apteka Książęca",
    "category": "pharmacy",
    "coordinates": [
      18.9708724,
      50.2298586
    ],
    "address": "Katowice"
  },
  {
    "id": "osm_node_3993150494",
    "name": "Apteka Książęca",
    "category": "pharmacy",
    "coordinates": [
      18.9521356,
      50.2311563
    ],
    "address": "Katowice"
  },
  {
    "id": "osm_node_9630466539",
    "name": "Apteka Książęca",
    "category": "pharmacy",
    "coordinates": [
      18.9633755,
      50.2318772
    ],
    "address": "Katowice"
  },
  {
    "id": "osm_node_9629108283",
    "name": "Apteka Larix",
    "category": "pharmacy",
    "coordinates": [
      19.0317062,
      50.2720775
    ],
    "address": "Katowice"
  },
  {
    "id": "osm_node_2416022647",
    "name": "Apteka Ligocka",
    "category": "pharmacy",
    "coordinates": [
      18.9689647,
      50.2230421
    ],
    "address": "Katowice"
  },
  {
    "id": "osm_node_2416022609",
    "name": "Apteka Ligota",
    "category": "pharmacy",
    "coordinates": [
      18.9719845,
      50.2233969
    ],
    "address": "Katowice"
  },
  {
    "id": "osm_node_12648051893",
    "name": "Apteka Na Rynku",
    "category": "pharmacy",
    "coordinates": [
      19.0434491,
      50.1986496
    ],
    "address": "Katowice"
  },
  {
    "id": "osm_node_2402342809",
    "name": "Apteka Pod Bazyliką",
    "category": "pharmacy",
    "coordinates": [
      18.9677549,
      50.2251846
    ],
    "address": "Katowice"
  },
  {
    "id": "osm_node_6766173335",
    "name": "Apteka pod kwiatami",
    "category": "pharmacy",
    "coordinates": [
      18.9684182,
      50.1765269
    ],
    "address": "Katowice"
  },
  {
    "id": "osm_node_1902680800",
    "name": "Apteka pod Kwiatami",
    "category": "pharmacy",
    "coordinates": [
      19.0382837,
      50.2690894
    ],
    "address": "Katowice"
  },
  {
    "id": "osm_node_1260091877",
    "name": "Apteka Pod Kwiatami",
    "category": "pharmacy",
    "coordinates": [
      19.0818009,
      50.2434224
    ],
    "address": "Katowice"
  },
  {
    "id": "osm_node_9629148460",
    "name": "Apteka Pod Kwiatami",
    "category": "pharmacy",
    "coordinates": [
      19.0428051,
      50.2607673
    ],
    "address": "Katowice"
  },
  {
    "id": "osm_node_9630395278",
    "name": "Apteka Pod Kwiatami",
    "category": "pharmacy",
    "coordinates": [
      18.9978789,
      50.1838755
    ],
    "address": "Katowice"
  },
  {
    "id": "osm_node_4701854740",
    "name": "Apteka Premium-Lek",
    "category": "pharmacy",
    "coordinates": [
      19.013148,
      50.2841182
    ],
    "address": "Katowice"
  },
  {
    "id": "osm_node_1796713614",
    "name": "Apteka Prima",
    "category": "pharmacy",
    "coordinates": [
      18.9862421,
      50.2331361
    ],
    "address": "Katowice"
  },
  {
    "id": "osm_node_4316410694",
    "name": "Apteka PRIMA",
    "category": "pharmacy",
    "coordinates": [
      18.9980585,
      50.2119198
    ],
    "address": "Ziołowa 68, 40-635, Katowice"
  },
  {
    "id": "osm_node_9630416793",
    "name": "Apteka Sieciowa Nr 1",
    "category": "pharmacy",
    "coordinates": [
      19.0629603,
      50.2247292
    ],
    "address": "Mysłowicka 28, 40-486, Katowice"
  },
  {
    "id": "osm_node_9630171642",
    "name": "Apteka Słowiańska",
    "category": "pharmacy",
    "coordinates": [
      18.9901174,
      50.2666802
    ],
    "address": "Katowice"
  },
  {
    "id": "osm_node_9630171641",
    "name": "Apteka Śląska-Twoja Apteka",
    "category": "pharmacy",
    "coordinates": [
      19.0334909,
      50.2504092
    ],
    "address": "Graniczna 45, 40-018, Katowice"
  },
  {
    "id": "osm_node_7558176064",
    "name": "Apteka Vitalis",
    "category": "pharmacy",
    "coordinates": [
      19.0639859,
      50.2213638
    ],
    "address": "Katowice"
  },
  {
    "id": "osm_node_1470644824",
    "name": "Apteka VITALIS",
    "category": "pharmacy",
    "coordinates": [
      18.9786541,
      50.1996794
    ],
    "address": "Bażantów 2, 40-668, Katowice"
  },
  {
    "id": "osm_node_9630252078",
    "name": "Apteka W Gwiazdach-Twoja Apteka",
    "category": "pharmacy",
    "coordinates": [
      19.0385401,
      50.2612072
    ],
    "address": "Katowice"
  },
  {
    "id": "osm_node_2473724039",
    "name": "Apteka Wiktor Mitas",
    "category": "pharmacy",
    "coordinates": [
      19.0269455,
      50.2539829
    ],
    "address": "Jagiellońska 38, 40-035, Katowice"
  },
  {
    "id": "osm_node_3920519639",
    "name": "Apteka Zdrowit",
    "category": "pharmacy",
    "coordinates": [
      19.0145501,
      50.2598783
    ],
    "address": "Katowice"
  },
  {
    "id": "osm_node_4956460721",
    "name": "Apteka Zdrowit",
    "category": "pharmacy",
    "coordinates": [
      18.9711155,
      50.2596008
    ],
    "address": "Katowice"
  },
  {
    "id": "osm_node_9629769574",
    "name": "Apteka Zdrowit",
    "category": "pharmacy",
    "coordinates": [
      18.9844099,
      50.2033172
    ],
    "address": "Katowice"
  },
  {
    "id": "osm_node_5001046211",
    "name": "Apteka Zdrowit+",
    "category": "pharmacy",
    "coordinates": [
      18.9771576,
      50.2262553
    ],
    "address": "Franciszkańska 1, 40-707, Katowice"
  },
  {
    "id": "osm_node_9629108282",
    "name": "Apteka Żyłka",
    "category": "pharmacy",
    "coordinates": [
      19.0208777,
      50.265544
    ],
    "address": "Katowice"
  },
  {
    "id": "osm_node_9630466537",
    "name": "Bliska",
    "category": "pharmacy",
    "coordinates": [
      18.9762344,
      50.2776423
    ],
    "address": "Katowice"
  },
  {
    "id": "osm_node_2134661035",
    "name": "Centrum Zdrowia",
    "category": "pharmacy",
    "coordinates": [
      18.9705189,
      50.2278282
    ],
    "address": "Katowice"
  },
  {
    "id": "osm_node_2416022652",
    "name": "Centrum Zdrowia",
    "category": "pharmacy",
    "coordinates": [
      18.975584,
      50.2258841
    ],
    "address": "Katowice"
  },
  {
    "id": "osm_node_9630416789",
    "name": "Centrum Zdrowia",
    "category": "pharmacy",
    "coordinates": [
      19.0792332,
      50.2459942
    ],
    "address": "Szopienicka 59, 40-431, Katowice"
  },
  {
    "id": "osm_node_476584796",
    "name": "Dbam o Zdrowie",
    "category": "pharmacy",
    "coordinates": [
      19.0633104,
      50.2258402
    ],
    "address": "Katowice"
  },
  {
    "id": "osm_node_1778432017",
    "name": "Dbam o Zdrowie",
    "category": "pharmacy",
    "coordinates": [
      18.9665966,
      50.2741919
    ],
    "address": "Katowice"
  },
  {
    "id": "osm_node_1817058973",
    "name": "Dbam o Zdrowie",
    "category": "pharmacy",
    "coordinates": [
      19.0195907,
      50.261213
    ],
    "address": "Katowice"
  },
  {
    "id": "osm_node_1928587390",
    "name": "Dbam o Zdrowie",
    "category": "pharmacy",
    "coordinates": [
      18.9827936,
      50.2752426
    ],
    "address": "Katowice"
  },
  {
    "id": "osm_node_2198003078",
    "name": "Dbam o Zdrowie",
    "category": "pharmacy",
    "coordinates": [
      19.0066201,
      50.2546413
    ],
    "address": "Katowice"
  },
  {
    "id": "osm_node_3781371132",
    "name": "Dbam o Zdrowie",
    "category": "pharmacy",
    "coordinates": [
      19.0243441,
      50.256144
    ],
    "address": "Katowice"
  },
  {
    "id": "osm_node_4281067351",
    "name": "Dbam o Zdrowie",
    "category": "pharmacy",
    "coordinates": [
      19.0089333,
      50.2790172
    ],
    "address": "Katowice"
  },
  {
    "id": "osm_node_9630171639",
    "name": "Dbam o Zdrowie",
    "category": "pharmacy",
    "coordinates": [
      19.0151524,
      50.2525499
    ],
    "address": "Katowice"
  },
  {
    "id": "osm_node_1796713607",
    "name": "Dr. Max",
    "category": "pharmacy",
    "coordinates": [
      18.9825988,
      50.23166
    ],
    "address": "Katowice"
  },
  {
    "id": "osm_node_2064595815",
    "name": "Dr. Max",
    "category": "pharmacy",
    "coordinates": [
      19.0249062,
      50.2519509
    ],
    "address": "Katowice"
  },
  {
    "id": "osm_node_2794873851",
    "name": "Dr. Max",
    "category": "pharmacy",
    "coordinates": [
      19.0083072,
      50.2773653
    ],
    "address": "Katowice"
  },
  {
    "id": "osm_node_3920520797",
    "name": "Dr. Max",
    "category": "pharmacy",
    "coordinates": [
      19.0189711,
      50.2596663
    ],
    "address": "Katowice"
  },
  {
    "id": "osm_node_4536707045",
    "name": "Dr. Max",
    "category": "pharmacy",
    "coordinates": [
      18.992459,
      50.2423225
    ],
    "address": "Katowice"
  },
  {
    "id": "osm_node_8341886326",
    "name": "Dr. Max",
    "category": "pharmacy",
    "coordinates": [
      19.036551,
      50.2433099
    ],
    "address": "Katowice"
  },
  {
    "id": "osm_way_1360974905",
    "name": "Dr. Max",
    "category": "pharmacy",
    "coordinates": [
      18.9863348,
      50.2238224
    ],
    "address": "Katowice"
  },
  {
    "id": "osm_node_1891573169",
    "name": "Eskulap",
    "category": "pharmacy",
    "coordinates": [
      19.0751625,
      50.2712398
    ],
    "address": "Generała Józefa Hallera 40, 40-321, Katowice"
  },
  {
    "id": "osm_node_9630171640",
    "name": "Eskulap",
    "category": "pharmacy",
    "coordinates": [
      19.0276383,
      50.268917
    ],
    "address": "Katowice"
  },
  {
    "id": "osm_node_2305362548",
    "name": "Fantazja",
    "category": "pharmacy",
    "coordinates": [
      19.0615987,
      50.2679806
    ],
    "address": "Katowice"
  },
  {
    "id": "osm_node_1928587376",
    "name": "Główna",
    "category": "pharmacy",
    "coordinates": [
      18.977351,
      50.2801971
    ],
    "address": "Katowice"
  },
  {
    "id": "osm_node_2984259067",
    "name": "Isofarm",
    "category": "pharmacy",
    "coordinates": [
      18.9732683,
      50.2310774
    ],
    "address": "Katowice"
  },
  {
    "id": "osm_node_3130241570",
    "name": "ISOFARM",
    "category": "pharmacy",
    "coordinates": [
      18.9739513,
      50.2108163
    ],
    "address": "Katowice"
  },
  {
    "id": "osm_node_6032775460",
    "name": "Koral",
    "category": "pharmacy",
    "coordinates": [
      18.9745684,
      50.2659043
    ],
    "address": "Katowice"
  },
  {
    "id": "osm_node_9629108281",
    "name": "Mariańska",
    "category": "pharmacy",
    "coordinates": [
      18.9781629,
      50.2100677
    ],
    "address": "Katowice"
  },
  {
    "id": "osm_node_6009322091",
    "name": "Maxfarm",
    "category": "pharmacy",
    "coordinates": [
      19.0143874,
      50.2436826
    ],
    "address": "Katowice"
  },
  {
    "id": "osm_node_1518004598",
    "name": "Na Dębie",
    "category": "pharmacy",
    "coordinates": [
      19.005393,
      50.2790974
    ],
    "address": "Katowice"
  },
  {
    "id": "osm_node_9629148461",
    "name": "Na Francuskiej",
    "category": "pharmacy",
    "coordinates": [
      19.0276458,
      50.2552359
    ],
    "address": "Księdza Józefa Szafranka 2-4, 40-025, Katowice"
  },
  {
    "id": "osm_node_6107700678",
    "name": "pharmacy",
    "category": "pharmacy",
    "coordinates": [
      19.0223394,
      50.2750327
    ],
    "address": "Katowice"
  },
  {
    "id": "osm_node_6564871924",
    "name": "pharmacy",
    "category": "pharmacy",
    "coordinates": [
      18.997597,
      50.2653227
    ],
    "address": "Katowice"
  },
  {
    "id": "osm_node_8888625352",
    "name": "pharmacy",
    "category": "pharmacy",
    "coordinates": [
      19.0442574,
      50.2687728
    ],
    "address": "Katowice"
  },
  {
    "id": "osm_node_9629108284",
    "name": "pharmacy",
    "category": "pharmacy",
    "coordinates": [
      19.0173477,
      50.25536
    ],
    "address": "Katowice"
  },
  {
    "id": "osm_node_1076148755",
    "name": "Pharmavit",
    "category": "pharmacy",
    "coordinates": [
      19.0184279,
      50.2601002
    ],
    "address": "Katowice"
  },
  {
    "id": "osm_node_9629769576",
    "name": "Pharmcentrum",
    "category": "pharmacy",
    "coordinates": [
      19.0084457,
      50.2674627
    ],
    "address": "Katowice"
  },
  {
    "id": "osm_node_4283957511",
    "name": "Premium-Lek",
    "category": "pharmacy",
    "coordinates": [
      19.0226698,
      50.2708637
    ],
    "address": "Katowice"
  },
  {
    "id": "osm_node_6366330331",
    "name": "Rodzinna",
    "category": "pharmacy",
    "coordinates": [
      18.9732271,
      50.2805847
    ],
    "address": "Katowice"
  },
  {
    "id": "osm_node_10031744317",
    "name": "Rossmann",
    "category": "pharmacy",
    "coordinates": [
      19.0048834,
      50.2367894
    ],
    "address": "Gawronów 6, Katowice"
  },
  {
    "id": "osm_node_1888613895",
    "name": "Salus",
    "category": "pharmacy",
    "coordinates": [
      19.0808171,
      50.268678
    ],
    "address": "Katowice"
  },
  {
    "id": "osm_node_3227096477",
    "name": "Słoneczna",
    "category": "pharmacy",
    "coordinates": [
      18.9837758,
      50.275262
    ],
    "address": "Katowice"
  },
  {
    "id": "osm_node_4823521276",
    "name": "Słoneczna",
    "category": "pharmacy",
    "coordinates": [
      19.0093294,
      50.2761575
    ],
    "address": "Katowice"
  },
  {
    "id": "osm_way_954229780",
    "name": "Super-Pharm",
    "category": "pharmacy",
    "coordinates": [
      19.0166423,
      50.2590868
    ],
    "address": "Katowice"
  },
  {
    "id": "osm_way_993074099",
    "name": "Super-Pharm",
    "category": "pharmacy",
    "coordinates": [
      19.0051598,
      50.269741
    ],
    "address": "Katowice"
  },
  {
    "id": "osm_node_8880735391",
    "name": "Świętego Jana",
    "category": "pharmacy",
    "coordinates": [
      19.0218997,
      50.2583247
    ],
    "address": "Katowice"
  },
  {
    "id": "osm_node_9630416787",
    "name": "U Aptekarzy",
    "category": "pharmacy",
    "coordinates": [
      19.0631665,
      50.2253122
    ],
    "address": "Katowice"
  },
  {
    "id": "osm_node_4110399989",
    "name": "Varia",
    "category": "pharmacy",
    "coordinates": [
      19.0320854,
      50.2481893
    ],
    "address": "Katowice"
  },
  {
    "id": "osm_node_2082778892",
    "name": "Viola",
    "category": "pharmacy",
    "coordinates": [
      19.0399126,
      50.1997097
    ],
    "address": "Katowice"
  },
  {
    "id": "osm_node_2589248889",
    "name": "Vitalis",
    "category": "pharmacy",
    "coordinates": [
      18.9496376,
      50.2300784
    ],
    "address": "Katowice"
  },
  {
    "id": "osm_node_6016058894",
    "name": "Zdrovit+",
    "category": "pharmacy",
    "coordinates": [
      18.9680582,
      50.2858903
    ],
    "address": "Katowice"
  },
  {
    "id": "osm_node_1534233812",
    "name": "Ziko Apteka",
    "category": "pharmacy",
    "coordinates": [
      18.96808,
      50.2255823
    ],
    "address": "Katowice"
  },
  {
    "id": "osm_node_2473724038",
    "name": "Ziko Apteka",
    "category": "pharmacy",
    "coordinates": [
      19.0199864,
      50.2525297
    ],
    "address": "Katowice"
  },
  {
    "id": "osm_node_3920520738",
    "name": "Ziko Apteka",
    "category": "pharmacy",
    "coordinates": [
      19.019992,
      50.2596171
    ],
    "address": "Katowice"
  },
  {
    "id": "osm_node_4253253089",
    "name": "Ziko Apteka",
    "category": "pharmacy",
    "coordinates": [
      19.0537289,
      50.2590181
    ],
    "address": "Katowice"
  },
  {
    "id": "osm_node_6367697762",
    "name": "Ziko Apteka",
    "category": "pharmacy",
    "coordinates": [
      19.0537279,
      50.2590083
    ],
    "address": "1 Maja 108, 40-239, Katowice"
  },
  {
    "id": "osm_node_6367710224",
    "name": "Ziko Apteka",
    "category": "pharmacy",
    "coordinates": [
      19.0198907,
      50.259621
    ],
    "address": "Katowice"
  },
  {
    "id": "osm_node_6367726839",
    "name": "Ziko Apteka",
    "category": "pharmacy",
    "coordinates": [
      19.0199846,
      50.2525197
    ],
    "address": "Plebiscytowa 39, 40-036, Katowice"
  },
  {
    "id": "osm_node_11631302148",
    "name": "Ziko Apteka",
    "category": "pharmacy",
    "coordinates": [
      18.973757,
      50.214067
    ],
    "address": "Katowice"
  },
  {
    "id": "osm_node_4598769581",
    "name": "#bezcukru",
    "category": "restaurant",
    "coordinates": [
      19.0195837,
      50.2591465
    ],
    "address": "Katowice"
  },
  {
    "id": "osm_node_6220988581",
    "name": "#bezcukru",
    "category": "restaurant",
    "coordinates": [
      19.0195766,
      50.2590712
    ],
    "address": "Katowice"
  },
  {
    "id": "osm_node_12923700815",
    "name": "#pierogowo",
    "category": "restaurant",
    "coordinates": [
      18.9705855,
      50.2817765
    ],
    "address": "Bolesława Chrobrego 17, 40-881, Katowice"
  },
  {
    "id": "osm_way_1211624857",
    "name": "02 Kebab",
    "category": "restaurant",
    "coordinates": [
      18.9693006,
      50.2182663
    ],
    "address": "Armii Krajowej, Katowice"
  },
  {
    "id": "osm_node_6146616985",
    "name": "27th floor",
    "category": "restaurant",
    "coordinates": [
      19.0251016,
      50.2617386
    ],
    "address": "Katowice"
  },
  {
    "id": "osm_node_5726297911",
    "name": "3 Siostry Bajgiel i Kawa",
    "category": "restaurant",
    "coordinates": [
      19.026292,
      50.2580026
    ],
    "address": "Katowice"
  },
  {
    "id": "osm_node_5717633235",
    "name": "8 stolikov",
    "category": "restaurant",
    "coordinates": [
      19.0229066,
      50.2540598
    ],
    "address": "Katowice"
  },
  {
    "id": "osm_node_4307400890",
    "name": "9 i 3/4",
    "category": "restaurant",
    "coordinates": [
      19.0439303,
      50.2592123
    ],
    "address": "Katowice"
  },
  {
    "id": "osm_node_9741585887",
    "name": "A Dong",
    "category": "restaurant",
    "coordinates": [
      19.0205945,
      50.2578666
    ],
    "address": "Katowice"
  },
  {
    "id": "osm_node_3780916367",
    "name": "Absurdalna",
    "category": "restaurant",
    "coordinates": [
      19.02293,
      50.258418
    ],
    "address": "Staromiejska 9, Katowice"
  },
  {
    "id": "osm_node_5715179851",
    "name": "Aïoli",
    "category": "restaurant",
    "coordinates": [
      19.0216054,
      50.260135
    ],
    "address": "Katowice"
  },
  {
    "id": "osm_node_10899752707",
    "name": "Alchemia",
    "category": "restaurant",
    "coordinates": [
      19.0292168,
      50.2571076
    ],
    "address": "Katowice"
  },
  {
    "id": "osm_node_3095119505",
    "name": "Aleje",
    "category": "restaurant",
    "coordinates": [
      19.0260092,
      50.2578682
    ],
    "address": "Świętego Stanisława 9, 40-014, Katowice"
  },
  {
    "id": "osm_node_9603733906",
    "name": "Alto",
    "category": "restaurant",
    "coordinates": [
      19.0286966,
      50.2641642
    ],
    "address": "Katowice"
  },
  {
    "id": "osm_node_4886346495",
    "name": "Ambasada Katowice",
    "category": "restaurant",
    "coordinates": [
      19.0246158,
      50.2584011
    ],
    "address": "Katowice"
  },
  {
    "id": "osm_node_3042537344",
    "name": "Ambasada Śledzia",
    "category": "restaurant",
    "coordinates": [
      19.0277502,
      50.2572232
    ],
    "address": "Katowice"
  },
  {
    "id": "osm_node_6109929786",
    "name": "Amfora",
    "category": "restaurant",
    "coordinates": [
      19.0282336,
      50.2578332
    ],
    "address": "Katowice"
  },
  {
    "id": "osm_node_9114813732",
    "name": "Amir Kebab Express",
    "category": "restaurant",
    "coordinates": [
      19.018587,
      50.2609252
    ],
    "address": "Katowice"
  },
  {
    "id": "osm_node_4849415231",
    "name": "Amnezja",
    "category": "restaurant",
    "coordinates": [
      19.0267634,
      50.2575067
    ],
    "address": "Katowice"
  },
  {
    "id": "osm_node_12070177547",
    "name": "Amrit Joy",
    "category": "restaurant",
    "coordinates": [
      19.0207705,
      50.2562509
    ],
    "address": "Katowice"
  },
  {
    "id": "osm_node_2429216848",
    "name": "Angolo Italiano",
    "category": "restaurant",
    "coordinates": [
      19.0142724,
      50.2540249
    ],
    "address": "Katowice"
  },
  {
    "id": "osm_node_4257532291",
    "name": "Ankara Kebab",
    "category": "restaurant",
    "coordinates": [
      19.0528702,
      50.2590624
    ],
    "address": "Katowice"
  },
  {
    "id": "osm_way_202128258",
    "name": "Aroi Thai / Thali House",
    "category": "restaurant",
    "coordinates": [
      19.0311595,
      50.2545998
    ],
    "address": "Przemysłowa 2, 40-020, Katowice"
  },
  {
    "id": "osm_node_13058002915",
    "name": "Art Cafe da Vinci",
    "category": "restaurant",
    "coordinates": [
      19.0189396,
      50.256385
    ],
    "address": "Katowice"
  },
  {
    "id": "osm_node_4266597389",
    "name": "Asma",
    "category": "restaurant",
    "coordinates": [
      19.0583602,
      50.2590917
    ],
    "address": "Katowice"
  },
  {
    "id": "osm_node_12585283446",
    "name": "Asma Kebab",
    "category": "restaurant",
    "coordinates": [
      19.0397008,
      50.2581494
    ],
    "address": "Katowice"
  },
  {
    "id": "osm_node_1817593100",
    "name": "Atmoklub",
    "category": "restaurant",
    "coordinates": [
      19.0130098,
      50.2542952
    ],
    "address": "Jana Kilińskiego 22, 40-062, Katowice"
  },
  {
    "id": "osm_node_4829639812",
    "name": "B M Kebab",
    "category": "restaurant",
    "coordinates": [
      19.0146912,
      50.2825486
    ],
    "address": "Katowice"
  },
  {
    "id": "osm_node_9656312158",
    "name": "Bafra Kebab",
    "category": "restaurant",
    "coordinates": [
      19.0131776,
      50.2845192
    ],
    "address": "Katowice"
  },
  {
    "id": "osm_node_9504656541",
    "name": "Bangkok Thai Food&Bar by Lime Leaf",
    "category": "restaurant",
    "coordinates": [
      19.0290036,
      50.257131
    ],
    "address": "Katowice"
  },
  {
    "id": "osm_node_12070177531",
    "name": "Bangla Deshi",
    "category": "restaurant",
    "coordinates": [
      19.0248032,
      50.2561069
    ],
    "address": "Katowice"
  },
  {
    "id": "osm_node_2305394904",
    "name": "bar",
    "category": "restaurant",
    "coordinates": [
      19.0604797,
      50.268546
    ],
    "address": "Katowice"
  },
  {
    "id": "osm_node_8888625355",
    "name": "bar",
    "category": "restaurant",
    "coordinates": [
      19.04552,
      50.2692267
    ],
    "address": "Katowice"
  },
  {
    "id": "osm_node_8964358845",
    "name": "bar",
    "category": "restaurant",
    "coordinates": [
      19.0400665,
      50.2678599
    ],
    "address": "Katowice"
  },
  {
    "id": "osm_node_3235010303",
    "name": "Bar a boo",
    "category": "restaurant",
    "coordinates": [
      19.0293255,
      50.2570974
    ],
    "address": "Mariacka 37, 40-014, Katowice"
  },
  {
    "id": "osm_way_182436218",
    "name": "Bar Galop",
    "category": "restaurant",
    "coordinates": [
      19.0100668,
      50.2475213
    ],
    "address": "Tadeusza Kościuszki 73, 40-047, Katowice"
  },
  {
    "id": "osm_node_12761936313",
    "name": "Bar Gucio",
    "category": "restaurant",
    "coordinates": [
      19.0199476,
      50.2607426
    ],
    "address": "Katowice"
  },
  {
    "id": "osm_way_201597575",
    "name": "Bar Książecy",
    "category": "restaurant",
    "coordinates": [
      18.9706865,
      50.2292055
    ],
    "address": "Piotrowicka 78, 40-724, Katowice"
  },
  {
    "id": "osm_node_3467916929",
    "name": "Bar Mleczny",
    "category": "restaurant",
    "coordinates": [
      19.0185023,
      50.2532423
    ],
    "address": "Juliusza Ligonia, Katowice"
  },
  {
    "id": "osm_node_1939504070",
    "name": "Bar Mleczny Europa",
    "category": "restaurant",
    "coordinates": [
      19.0203669,
      50.2601482
    ],
    "address": "Katowice"
  },
  {
    "id": "osm_node_3194305233",
    "name": "Bar Mleczny Talerz i Szklanka",
    "category": "restaurant",
    "coordinates": [
      19.0241248,
      50.2584141
    ],
    "address": "Katowice"
  },
  {
    "id": "osm_way_211509925",
    "name": "Bar Okrąglak",
    "category": "restaurant",
    "coordinates": [
      18.9634455,
      50.2183624
    ],
    "address": "Wczasowa 10, Katowice"
  },
  {
    "id": "osm_node_7383431142",
    "name": "Bar Orientalny Mai-Mai",
    "category": "restaurant",
    "coordinates": [
      18.995363,
      50.2663145
    ],
    "address": "Gliwicka 139, 40-857, Katowice"
  },
  {
    "id": "osm_node_6701034923",
    "name": "Bar pod kasztanem",
    "category": "restaurant",
    "coordinates": [
      18.9992,
      50.2740299
    ],
    "address": "Katowice"
  },
  {
    "id": "osm_way_201595399",
    "name": "Bar RIWIERA",
    "category": "restaurant",
    "coordinates": [
      18.9656705,
      50.2244211
    ],
    "address": "Pomorska 3, 40-732, Katowice"
  },
  {
    "id": "osm_node_12177377742",
    "name": "Bar Śmigło",
    "category": "restaurant",
    "coordinates": [
      19.0256345,
      50.2344807
    ],
    "address": "Katowice"
  },
  {
    "id": "osm_node_3813012485",
    "name": "Basiliana",
    "category": "restaurant",
    "coordinates": [
      19.0280396,
      50.2574234
    ],
    "address": "Katowice"
  },
  {
    "id": "osm_node_1490583344",
    "name": "Baxter",
    "category": "restaurant",
    "coordinates": [
      19.0626376,
      50.2244765
    ],
    "address": "Katowice"
  },
  {
    "id": "osm_node_1905025005",
    "name": "Bayer Landhaus",
    "category": "restaurant",
    "coordinates": [
      18.978153,
      50.2319005
    ],
    "address": "Tomasza 12, Katowice"
  },
  {
    "id": "osm_node_10064216837",
    "name": "Bazylia",
    "category": "restaurant",
    "coordinates": [
      19.0274547,
      50.2834949
    ],
    "address": "Katowice"
  },
  {
    "id": "osm_node_11933947902",
    "name": "BBQ Ramen-ya",
    "category": "restaurant",
    "coordinates": [
      19.016273,
      50.2529684
    ],
    "address": "Katowice"
  },
  {
    "id": "osm_node_4296985691",
    "name": "Beer, sausages, ice cream",
    "category": "restaurant",
    "coordinates": [
      19.0468805,
      50.2484691
    ],
    "address": "Katowice"
  },
  {
    "id": "osm_node_4884335189",
    "name": "Beka w Piwnicy",
    "category": "restaurant",
    "coordinates": [
      19.0941224,
      50.2639876
    ],
    "address": "Księdza biskupa Herberta Bednorza 2a/6, 40-384, Katowice"
  },
  {
    "id": "osm_node_5760556006",
    "name": "Berlin Kebab",
    "category": "restaurant",
    "coordinates": [
      18.9824304,
      50.2752463
    ],
    "address": "Katowice"
  },
  {
    "id": "osm_node_13350822888",
    "name": "Best Kebab",
    "category": "restaurant",
    "coordinates": [
      18.9588541,
      50.2271083
    ],
    "address": "Katowice"
  },
  {
    "id": "osm_node_3360242313",
    "name": "Bezowo Czekoladowo",
    "category": "restaurant",
    "coordinates": [
      19.0222491,
      50.2585126
    ],
    "address": "Katowice"
  },
  {
    "id": "osm_node_2682496985",
    "name": "Biała Małpa",
    "category": "restaurant",
    "coordinates": [
      19.0164412,
      50.2593864
    ],
    "address": "3 Maja 38, Katowice"
  },
  {
    "id": "osm_way_682537411",
    "name": "Biały Domek",
    "category": "restaurant",
    "coordinates": [
      18.9687045,
      50.2189748
    ],
    "address": "Armii Krajowej 1, 40-721, Katowice"
  },
  {
    "id": "osm_node_655152523",
    "name": "Bierhalle",
    "category": "restaurant",
    "coordinates": [
      19.0021469,
      50.2703506
    ],
    "address": "Katowice"
  },
  {
    "id": "osm_node_11630715878",
    "name": "Biesiadowo",
    "category": "restaurant",
    "coordinates": [
      18.9992474,
      50.2645282
    ],
    "address": "Katowice"
  },
  {
    "id": "osm_way_1012098049",
    "name": "Big Boba",
    "category": "restaurant",
    "coordinates": [
      19.0068352,
      50.2701015
    ],
    "address": "Katowice"
  },
  {
    "id": "osm_node_4955700839",
    "name": "Bindrich",
    "category": "restaurant",
    "coordinates": [
      18.9706836,
      50.2608884
    ],
    "address": "Katowice"
  },
  {
    "id": "osm_node_5278927422",
    "name": "Bistro",
    "category": "restaurant",
    "coordinates": [
      19.0298615,
      50.2551054
    ],
    "address": "Katowice"
  },
  {
    "id": "osm_node_8400109907",
    "name": "Bistro",
    "category": "restaurant",
    "coordinates": [
      18.9703827,
      50.2599081
    ],
    "address": "Katowice"
  },
  {
    "id": "osm_node_9383917285",
    "name": "Bistro A nóż widelec",
    "category": "restaurant",
    "coordinates": [
      18.9940175,
      50.2442752
    ],
    "address": "Katowice"
  },
  {
    "id": "osm_node_7473957563",
    "name": "Bistro Bajka",
    "category": "restaurant",
    "coordinates": [
      19.0397121,
      50.2680863
    ],
    "address": "Katowice"
  },
  {
    "id": "osm_node_11838395054",
    "name": "Bistro Cafe Rostka",
    "category": "restaurant",
    "coordinates": [
      19.0106906,
      50.2553232
    ],
    "address": "Katowice"
  },
  {
    "id": "osm_node_8369602869",
    "name": "Bistro Jak w Domku",
    "category": "restaurant",
    "coordinates": [
      19.0236808,
      50.2606017
    ],
    "address": "Katowice"
  },
  {
    "id": "osm_node_6032775461",
    "name": "Bistro Kanapkowe",
    "category": "restaurant",
    "coordinates": [
      18.9748432,
      50.2659005
    ],
    "address": "Katowice"
  },
  {
    "id": "osm_node_12488814513",
    "name": "Bistro Magic",
    "category": "restaurant",
    "coordinates": [
      19.0218999,
      50.2691349
    ],
    "address": "Plac Grunwaldzki, Katowice"
  },
  {
    "id": "osm_node_6366330340",
    "name": "Bistro na Tauzenie",
    "category": "restaurant",
    "coordinates": [
      18.9728441,
      50.2804763
    ],
    "address": "Katowice"
  },
  {
    "id": "osm_node_11090377637",
    "name": "Bistro Smaczek",
    "category": "restaurant",
    "coordinates": [
      19.0298335,
      50.2692965
    ],
    "address": "Katowice"
  },
  {
    "id": "osm_node_12561163857",
    "name": "Bistro Strefa Smaku",
    "category": "restaurant",
    "coordinates": [
      19.0603084,
      50.2654642
    ],
    "address": "Katowice"
  },
  {
    "id": "osm_node_13331490737",
    "name": "Bistro Ulepione",
    "category": "restaurant",
    "coordinates": [
      19.01232,
      50.2550281
    ],
    "address": "Franciszka Żwirki i Stanisława Wigury 29, Katowice"
  },
  {
    "id": "osm_node_11910440822",
    "name": "Bistro w kamienicy",
    "category": "restaurant",
    "coordinates": [
      19.0099685,
      50.2556047
    ],
    "address": "Katowice"
  },
  {
    "id": "osm_way_202259491",
    "name": "Black Sky Coffee",
    "category": "restaurant",
    "coordinates": [
      18.981955,
      50.2752236
    ],
    "address": "Aleja Bolesława Krzywoustego 18, 40-873, Katowice"
  },
  {
    "id": "osm_node_3920520376",
    "name": "Black Woolf Coffee & Books",
    "category": "restaurant",
    "coordinates": [
      19.0160667,
      50.2598021
    ],
    "address": "3 Maja 25, 40-093, Katowice"
  },
  {
    "id": "osm_node_1076148809",
    "name": "Bob Cafe",
    "category": "restaurant",
    "coordinates": [
      19.0171742,
      50.261084
    ],
    "address": "Katowice"
  },
  {
    "id": "osm_node_3920519765",
    "name": "BoboQ",
    "category": "restaurant",
    "coordinates": [
      19.0171423,
      50.2589864
    ],
    "address": "Katowice"
  },
  {
    "id": "osm_node_13860040084",
    "name": "Bohema",
    "category": "restaurant",
    "coordinates": [
      19.0162404,
      50.2495479
    ],
    "address": "Katowice"
  },
  {
    "id": "osm_node_1414842153",
    "name": "Bolina",
    "category": "restaurant",
    "coordinates": [
      19.0864845,
      50.231737
    ],
    "address": "Katowice"
  },
  {
    "id": "osm_node_6993698633",
    "name": "Bombel Cafe",
    "category": "restaurant",
    "coordinates": [
      18.9687995,
      50.1842474
    ],
    "address": "Mieczyków 60, 40-748, Katowice"
  },
  {
    "id": "osm_node_6306356564",
    "name": "Browar Mariacki",
    "category": "restaurant",
    "coordinates": [
      19.0265397,
      50.2573256
    ],
    "address": "Mariacka 15, Katowice"
  },
  {
    "id": "osm_node_3684289908",
    "name": "Browariat",
    "category": "restaurant",
    "coordinates": [
      19.0276033,
      50.2561188
    ],
    "address": "Katowice"
  },
  {
    "id": "osm_node_5301058221",
    "name": "Buddha",
    "category": "restaurant",
    "coordinates": [
      19.0155428,
      50.2540607
    ],
    "address": "Katowice"
  },
  {
    "id": "osm_node_7216117166",
    "name": "Bufet studencki Gruszki na Wierzbie",
    "category": "restaurant",
    "coordinates": [
      19.0012224,
      50.2541841
    ],
    "address": "Raciborska 50, 40-074, Katowice"
  },
  {
    "id": "osm_node_7216117168",
    "name": "Bufet studencki Gruszki na Wierzbie",
    "category": "restaurant",
    "coordinates": [
      19.0005679,
      50.25309
    ],
    "address": "Koszarowa 19, 40-068, Katowice"
  },
  {
    "id": "osm_node_6754230310",
    "name": "Bujna",
    "category": "restaurant",
    "coordinates": [
      19.0247868,
      50.2579523
    ],
    "address": "Andrzeja Mielęckiego 10, Katowice"
  },
  {
    "id": "osm_node_8354367248",
    "name": "Bułkęs",
    "category": "restaurant",
    "coordinates": [
      19.0254654,
      50.2558683
    ],
    "address": "Wojewódzka 21, 40-026, Katowice"
  },
  {
    "id": "osm_node_3920519772",
    "name": "Burger King",
    "category": "restaurant",
    "coordinates": [
      19.017894,
      50.2590668
    ],
    "address": "Katowice"
  },
  {
    "id": "osm_node_5637210648",
    "name": "Burger King",
    "category": "restaurant",
    "coordinates": [
      19.0471788,
      50.2531404
    ],
    "address": "Katowice"
  },
  {
    "id": "osm_way_1341217289",
    "name": "Burger King",
    "category": "restaurant",
    "coordinates": [
      18.9861416,
      50.2620631
    ],
    "address": "Feliksa Bocheńskiego 77, 40-847, Katowice"
  },
  {
    "id": "osm_node_1868232243",
    "name": "Burgi",
    "category": "restaurant",
    "coordinates": [
      18.9748232,
      50.2258525
    ],
    "address": "Katowice"
  },
  {
    "id": "osm_node_2799866110",
    "name": "Butchery&Grill",
    "category": "restaurant",
    "coordinates": [
      19.0174249,
      50.2595084
    ],
    "address": "Katowice"
  },
  {
    "id": "osm_node_3822569095",
    "name": "Butersznyt",
    "category": "restaurant",
    "coordinates": [
      19.0242238,
      50.2562335
    ],
    "address": "Wojewódzka 24, 40-026, Katowice"
  },
  {
    "id": "osm_node_5950059646",
    "name": "By Döner Kebab Gemüse i Kraftowy",
    "category": "restaurant",
    "coordinates": [
      19.0198236,
      50.2591372
    ],
    "address": "Katowice"
  },
  {
    "id": "osm_node_3425428594",
    "name": "Cadenza",
    "category": "restaurant",
    "coordinates": [
      19.0290805,
      50.264044
    ],
    "address": "Katowice"
  },
  {
    "id": "osm_node_8369602885",
    "name": "cafe",
    "category": "restaurant",
    "coordinates": [
      19.0230742,
      50.2617379
    ],
    "address": "Katowice"
  },
  {
    "id": "osm_node_12423263548",
    "name": "cafe",
    "category": "restaurant",
    "coordinates": [
      18.9798175,
      50.1840182
    ],
    "address": "Katowice"
  },
  {
    "id": "osm_node_13505463684",
    "name": "cafe",
    "category": "restaurant",
    "coordinates": [
      18.9794055,
      50.206067
    ],
    "address": "Katowice"
  },
  {
    "id": "osm_way_201578848",
    "name": "cafe",
    "category": "restaurant",
    "coordinates": [
      18.9630685,
      50.2278553
    ],
    "address": "Katowice"
  },
  {
    "id": "osm_way_201595862",
    "name": "Cafe Bordo",
    "category": "restaurant",
    "coordinates": [
      18.9754335,
      50.2198308
    ],
    "address": "Katowice"
  },
  {
    "id": "osm_node_4190698148",
    "name": "Cafe Byfyj",
    "category": "restaurant",
    "coordinates": [
      19.0812132,
      50.2434437
    ],
    "address": "Bernarda Krawczyka 5, 40-423, Katowice"
  },
  {
    "id": "osm_node_8341886350",
    "name": "Cafe Chopin",
    "category": "restaurant",
    "coordinates": [
      19.0366466,
      50.2438343
    ],
    "address": "Katowice"
  },
  {
    "id": "osm_node_3350722553",
    "name": "Cafe Kattowitz",
    "category": "restaurant",
    "coordinates": [
      19.0215159,
      50.2581997
    ],
    "address": "Katowice"
  },
  {
    "id": "osm_node_4967461106",
    "name": "Café Noir",
    "category": "restaurant",
    "coordinates": [
      19.0229642,
      50.2582457
    ],
    "address": "Katowice"
  },
  {
    "id": "osm_node_6357329301",
    "name": "Caffe Moya",
    "category": "restaurant",
    "coordinates": [
      18.9727358,
      50.2673729
    ],
    "address": "Katowice"
  },
  {
    "id": "osm_node_1878720831",
    "name": "Calvados",
    "category": "restaurant",
    "coordinates": [
      18.9260398,
      50.2279175
    ],
    "address": "Panewnicka 403, 40-774, Katowice"
  },
  {
    "id": "osm_node_8898480644",
    "name": "Carlos",
    "category": "restaurant",
    "coordinates": [
      19.0208438,
      50.2542105
    ],
    "address": "Katowice"
  },
  {
    "id": "osm_node_3104352347",
    "name": "Casa Felice",
    "category": "restaurant",
    "coordinates": [
      19.0479388,
      50.2462173
    ],
    "address": "Trzech Stawów 15, 40-291, Katowice"
  },
  {
    "id": "osm_node_2118225438",
    "name": "Centaur",
    "category": "restaurant",
    "coordinates": [
      18.9732868,
      50.2107326
    ],
    "address": "Armii Krajowej 66, 40-678, Katowice"
  },
  {
    "id": "osm_node_9575391444",
    "name": "Centrum Pub",
    "category": "restaurant",
    "coordinates": [
      19.017866,
      50.2606302
    ],
    "address": "Katowice"
  },
  {
    "id": "osm_node_6565028917",
    "name": "Chata Drwala",
    "category": "restaurant",
    "coordinates": [
      18.9963279,
      50.2657141
    ],
    "address": "Katowice"
  },
  {
    "id": "osm_node_5229922330",
    "name": "Chata z Zalipia",
    "category": "restaurant",
    "coordinates": [
      19.0233597,
      50.2560277
    ],
    "address": "Katowice"
  },
  {
    "id": "osm_node_12790279062",
    "name": "Cherubeki.Pl",
    "category": "restaurant",
    "coordinates": [
      19.0185458,
      50.2583618
    ],
    "address": "Katowice"
  },
  {
    "id": "osm_node_2326211027",
    "name": "Chinkalnia",
    "category": "restaurant",
    "coordinates": [
      19.0271912,
      50.2575014
    ],
    "address": "Katowice"
  },
  {
    "id": "osm_node_4598769587",
    "name": "Chopin",
    "category": "restaurant",
    "coordinates": [
      19.0211152,
      50.2590119
    ],
    "address": "Katowice"
  },
  {
    "id": "osm_node_4829639804",
    "name": "Chwytaj Zdrowie",
    "category": "restaurant",
    "coordinates": [
      19.0149173,
      50.2817934
    ],
    "address": "Katowice"
  },
  {
    "id": "osm_node_10751273354",
    "name": "Ciacho bez cukru",
    "category": "restaurant",
    "coordinates": [
      19.0416773,
      50.2522088
    ],
    "address": "Katowice"
  },
  {
    "id": "osm_node_12574494361",
    "name": "Ciao Italia",
    "category": "restaurant",
    "coordinates": [
      19.0317332,
      50.2575483
    ],
    "address": "Katowice"
  },
  {
    "id": "osm_node_4816209566",
    "name": "Cinnamon & More",
    "category": "restaurant",
    "coordinates": [
      19.006049,
      50.2703262
    ],
    "address": "Katowice"
  },
  {
    "id": "osm_node_7724157793",
    "name": "City Sushi",
    "category": "restaurant",
    "coordinates": [
      18.9518563,
      50.1844528
    ],
    "address": "Pawła Stellera 1, 40-748, Katowice"
  },
  {
    "id": "osm_node_6564893519",
    "name": "Club Silesia",
    "category": "restaurant",
    "coordinates": [
      18.9992738,
      50.2642729
    ],
    "address": "Katowice"
  },
  {
    "id": "osm_node_1816642407",
    "name": "Club99",
    "category": "restaurant",
    "coordinates": [
      19.0064869,
      50.2629027
    ],
    "address": "Gliwicka 51, 40-014, Katowice"
  },
  {
    "id": "osm_node_4190615119",
    "name": "Coffee Synergia",
    "category": "restaurant",
    "coordinates": [
      19.013953,
      50.2570174
    ],
    "address": "Andrzeja 29, 40-061, Katowice"
  },
  {
    "id": "osm_node_5839958085",
    "name": "Coffee-jka",
    "category": "restaurant",
    "coordinates": [
      19.0205114,
      50.2542375
    ],
    "address": "Plebiscytowa 21, 40-036, Katowice"
  },
  {
    "id": "osm_node_8341886357",
    "name": "Coffej-ka",
    "category": "restaurant",
    "coordinates": [
      19.0366034,
      50.2437437
    ],
    "address": "Katowice"
  },
  {
    "id": "osm_way_450111663",
    "name": "CoffeToGo",
    "category": "restaurant",
    "coordinates": [
      19.0172246,
      50.2583286
    ],
    "address": "Katowice"
  },
  {
    "id": "osm_node_5353576322",
    "name": "Colorado",
    "category": "restaurant",
    "coordinates": [
      18.9852875,
      50.2123079
    ],
    "address": "Katowice"
  },
  {
    "id": "osm_node_4958461775",
    "name": "Costa",
    "category": "restaurant",
    "coordinates": [
      19.0037081,
      50.2711008
    ],
    "address": "Katowice"
  },
  {
    "id": "osm_way_1012109266",
    "name": "Costa",
    "category": "restaurant",
    "coordinates": [
      19.0048654,
      50.270775
    ],
    "address": "Katowice"
  },
  {
    "id": "osm_node_3920520690",
    "name": "Crazy Bubble",
    "category": "restaurant",
    "coordinates": [
      19.0178488,
      50.2580736
    ],
    "address": "Katowice"
  },
  {
    "id": "osm_node_1868232275",
    "name": "Cukiernia",
    "category": "restaurant",
    "coordinates": [
      18.9654438,
      50.2249496
    ],
    "address": "Katowice"
  },
  {
    "id": "osm_node_9773573347",
    "name": "Cukiernia -Piekarnia Firma Ćmiel Katowice",
    "category": "restaurant",
    "coordinates": [
      19.0266273,
      50.2701164
    ],
    "address": "plac Gwarków 1, 40-959, Katowice"
  },
  {
    "id": "osm_way_1012105038",
    "name": "Cukiernia Sowa",
    "category": "restaurant",
    "coordinates": [
      19.0034592,
      50.2703049
    ],
    "address": "Katowice"
  },
  {
    "id": "osm_node_3350722557",
    "name": "Cybermachina",
    "category": "restaurant",
    "coordinates": [
      19.0221521,
      50.2582197
    ],
    "address": "Świętego Jana 10, 40-012, Katowice"
  },
  {
    "id": "osm_node_3684289910",
    "name": "CyberTap",
    "category": "restaurant",
    "coordinates": [
      19.0279394,
      50.2561246
    ],
    "address": "Francuska 12, 40-015, Katowice"
  },
  {
    "id": "osm_node_7040784198",
    "name": "Cyrulik Śląski Café",
    "category": "restaurant",
    "coordinates": [
      18.9722231,
      50.2810017
    ],
    "address": "Bolesława Chrobrego 38, 40-881, Katowice"
  },
  {
    "id": "osm_node_1817058978",
    "name": "Czaplomania",
    "category": "restaurant",
    "coordinates": [
      19.0198406,
      50.2607704
    ],
    "address": "Katowice"
  },
  {
    "id": "osm_node_1868232239",
    "name": "Da Grasso",
    "category": "restaurant",
    "coordinates": [
      18.9711432,
      50.2264049
    ],
    "address": "Panewnicka 28, Katowice"
  },
  {
    "id": "osm_node_6028250126",
    "name": "DaGrasso CityRock",
    "category": "restaurant",
    "coordinates": [
      19.0195864,
      50.2658437
    ],
    "address": "Katowice"
  },
  {
    "id": "osm_node_4399989406",
    "name": "De Bap",
    "category": "restaurant",
    "coordinates": [
      19.0202439,
      50.2562371
    ],
    "address": "Jana Kochanowskiego 1, Katowice"
  },
  {
    "id": "osm_node_4964635080",
    "name": "dekasmak",
    "category": "restaurant",
    "coordinates": [
      19.0032867,
      50.2701081
    ],
    "address": "Katowice"
  },
  {
    "id": "osm_way_201675798",
    "name": "Dębowa",
    "category": "restaurant",
    "coordinates": [
      18.9734736,
      50.1796173
    ],
    "address": "Armii Krajowej 465, Katowice"
  },
  {
    "id": "osm_way_201886955",
    "name": "Diamond Kebab",
    "category": "restaurant",
    "coordinates": [
      19.0602872,
      50.2232952
    ],
    "address": "Wojciecha 1a, Katowice"
  },
  {
    "id": "osm_node_4448553007",
    "name": "Dixie Bar",
    "category": "restaurant",
    "coordinates": [
      19.0166871,
      50.2601509
    ],
    "address": "3 Maja 25/13, Katowice"
  },
  {
    "id": "osm_node_5046096088",
    "name": "Do Tea",
    "category": "restaurant",
    "coordinates": [
      19.0192868,
      50.2588349
    ],
    "address": "Katowice"
  },
  {
    "id": "osm_node_2122612980",
    "name": "Dobra Karma",
    "category": "restaurant",
    "coordinates": [
      19.0317755,
      50.2559421
    ],
    "address": "Świętego Jacka 1, 40-019, Katowice"
  },
  {
    "id": "osm_node_7997485050",
    "name": "Dobra Pączkarnia",
    "category": "restaurant",
    "coordinates": [
      19.0192343,
      50.259438
    ],
    "address": "Katowice"
  },
  {
    "id": "osm_node_1775981897",
    "name": "Dolce Vita",
    "category": "restaurant",
    "coordinates": [
      19.0275327,
      50.2574726
    ],
    "address": "Katowice"
  },
  {
    "id": "osm_node_8260298952",
    "name": "Dom Przyjęć HUBERTUS",
    "category": "restaurant",
    "coordinates": [
      19.0373072,
      50.1989658
    ],
    "address": "Jana Samsonowicza 23AB, 40-749, Katowice"
  },
  {
    "id": "osm_node_9521263824",
    "name": "Domino's",
    "category": "restaurant",
    "coordinates": [
      18.9727703,
      50.2312808
    ],
    "address": "Katowice"
  },
  {
    "id": "osm_node_13272483569",
    "name": "Drzwi Zwane Koniem",
    "category": "restaurant",
    "coordinates": [
      19.0263309,
      50.2573399
    ],
    "address": "Mariacka 13, 40-014, Katowice"
  },
  {
    "id": "osm_node_4162026003",
    "name": "Duet",
    "category": "restaurant",
    "coordinates": [
      19.057154,
      50.2595778
    ],
    "address": "Katowice"
  },
  {
    "id": "osm_node_394576131",
    "name": "Dworek Pod Lipami",
    "category": "restaurant",
    "coordinates": [
      19.0670677,
      50.2221554
    ],
    "address": "Plac Pod Lipami 1, 40-467, Katowice"
  },
  {
    "id": "osm_node_2028008708",
    "name": "Dzień i Noc",
    "category": "restaurant",
    "coordinates": [
      19.0239195,
      50.2589983
    ],
    "address": "Warszawska 5, 40-009, Katowice"
  },
  {
    "id": "osm_node_2122345239",
    "name": "El Turco",
    "category": "restaurant",
    "coordinates": [
      19.0245893,
      50.2573196
    ],
    "address": "Mariacka 1, 40-014, Katowice"
  },
  {
    "id": "osm_node_9219749488",
    "name": "Emcek",
    "category": "restaurant",
    "coordinates": [
      19.0266423,
      50.2652904
    ],
    "address": "Katowice"
  },
  {
    "id": "osm_node_9528907039",
    "name": "Eskulap",
    "category": "restaurant",
    "coordinates": [
      18.9551831,
      50.2250549
    ],
    "address": "Katowice"
  },
  {
    "id": "osm_way_954462378",
    "name": "Etno Cafe",
    "category": "restaurant",
    "coordinates": [
      19.0175903,
      50.2590117
    ],
    "address": "Katowice"
  },
  {
    "id": "osm_node_1490598551",
    "name": "Express Bistro",
    "category": "restaurant",
    "coordinates": [
      19.0632448,
      50.2247633
    ],
    "address": "Katowice"
  },
  {
    "id": "osm_node_9951608645",
    "name": "Express Granat",
    "category": "restaurant",
    "coordinates": [
      19.0229176,
      50.2660349
    ],
    "address": "Katowice"
  },
  {
    "id": "osm_way_201781282",
    "name": "Express Pizza",
    "category": "restaurant",
    "coordinates": [
      18.9989036,
      50.1831317
    ],
    "address": "Tadeusza Boya-Żeleńskiego 81, Katowice"
  },
  {
    "id": "osm_node_3920519860",
    "name": "Fabryka Burgera",
    "category": "restaurant",
    "coordinates": [
      19.0163145,
      50.2593759
    ],
    "address": "Katowice"
  },
  {
    "id": "osm_node_4845585774",
    "name": "Fabryka Pizzy",
    "category": "restaurant",
    "coordinates": [
      19.0272173,
      50.2572639
    ],
    "address": "Katowice"
  },
  {
    "id": "osm_node_2132271018",
    "name": "Fajrant24",
    "category": "restaurant",
    "coordinates": [
      18.9744362,
      50.2118232
    ],
    "address": "Katowice"
  },
  {
    "id": "osm_node_8844266672",
    "name": "Falla",
    "category": "restaurant",
    "coordinates": [
      19.0212841,
      50.2549034
    ],
    "address": "Plebiscytowa 10, 40-035, Katowice"
  },
  {
    "id": "osm_node_3355801156",
    "name": "Fanaberia Tea garden",
    "category": "restaurant",
    "coordinates": [
      19.018942,
      50.2536067
    ],
    "address": "Katowice"
  },
  {
    "id": "osm_node_3355801157",
    "name": "Fantasy Inn \"Rudy Goblin\"",
    "category": "restaurant",
    "coordinates": [
      19.0185498,
      50.2535515
    ],
    "address": "Katowice"
  },
  {
    "id": "osm_node_3569127314",
    "name": "fast_food",
    "category": "restaurant",
    "coordinates": [
      19.0188607,
      50.2612532
    ],
    "address": "Katowice"
  },
  {
    "id": "osm_node_3920520754",
    "name": "fast_food",
    "category": "restaurant",
    "coordinates": [
      19.0163911,
      50.2571444
    ],
    "address": "Katowice"
  },
  {
    "id": "osm_node_4068787441",
    "name": "fast_food",
    "category": "restaurant",
    "coordinates": [
      18.9768402,
      50.2792934
    ],
    "address": "Katowice"
  },
  {
    "id": "osm_way_201889482",
    "name": "fast_food",
    "category": "restaurant",
    "coordinates": [
      19.0491666,
      50.2249039
    ],
    "address": "Katowice"
  },
  {
    "id": "osm_way_1168259133",
    "name": "fast_food",
    "category": "restaurant",
    "coordinates": [
      19.0545943,
      50.2215927
    ],
    "address": "Katowice"
  },
  {
    "id": "osm_way_201887440",
    "name": "Fest Jodło",
    "category": "restaurant",
    "coordinates": [
      19.0673173,
      50.2237598
    ],
    "address": "Radosna 35a, Katowice"
  },
  {
    "id": "osm_node_9191791416",
    "name": "Flower Bar",
    "category": "restaurant",
    "coordinates": [
      19.0231607,
      50.2608909
    ],
    "address": "Katowice"
  },
  {
    "id": "osm_node_13685587202",
    "name": "food_court",
    "category": "restaurant",
    "coordinates": [
      19.0631686,
      50.2237185
    ],
    "address": "Katowice"
  },
  {
    "id": "osm_way_733977428",
    "name": "food_court",
    "category": "restaurant",
    "coordinates": [
      18.9888475,
      50.2237806
    ],
    "address": "Katowice"
  },
  {
    "id": "osm_node_10891386126",
    "name": "Fuego",
    "category": "restaurant",
    "coordinates": [
      19.0248513,
      50.2576594
    ],
    "address": "Katowice"
  },
  {
    "id": "osm_node_5882853059",
    "name": "Fun Fruit zdrowe bistro",
    "category": "restaurant",
    "coordinates": [
      19.069637,
      50.278114
    ],
    "address": "Strzelców Bytomskich 17, Katowice"
  },
  {
    "id": "osm_node_6764737654",
    "name": "Gaspacho lunch&pizza",
    "category": "restaurant",
    "coordinates": [
      18.9777309,
      50.1822829
    ],
    "address": "Armii Krajowej 417b, 40-748, Katowice"
  },
  {
    "id": "osm_node_9228565365",
    "name": "Gliwicka 44 Caffe",
    "category": "restaurant",
    "coordinates": [
      19.005797,
      50.2627578
    ],
    "address": "Katowice"
  },
  {
    "id": "osm_node_11942474682",
    "name": "Gołębnik",
    "category": "restaurant",
    "coordinates": [
      18.9970012,
      50.2461169
    ],
    "address": "Katowice"
  },
  {
    "id": "osm_node_12087479238",
    "name": "Good Times",
    "category": "restaurant",
    "coordinates": [
      19.0161466,
      50.260515
    ],
    "address": "Katowice"
  },
  {
    "id": "osm_node_8341886348",
    "name": "Greco",
    "category": "restaurant",
    "coordinates": [
      19.0367636,
      50.2440417
    ],
    "address": "Katowice"
  },
  {
    "id": "osm_node_10899971892",
    "name": "Greenpoint",
    "category": "restaurant",
    "coordinates": [
      19.0253411,
      50.2576171
    ],
    "address": "Katowice"
  },
  {
    "id": "osm_node_3820804207",
    "name": "Grill Bar",
    "category": "restaurant",
    "coordinates": [
      19.0250044,
      50.2441155
    ],
    "address": "Katowice"
  },
  {
    "id": "osm_node_3184257357",
    "name": "Gruba Ciotka",
    "category": "restaurant",
    "coordinates": [
      18.9996118,
      50.2466671
    ],
    "address": "Katowice"
  },
  {
    "id": "osm_node_3920519653",
    "name": "Gryfne Kreple",
    "category": "restaurant",
    "coordinates": [
      19.0163221,
      50.2571336
    ],
    "address": "Katowice"
  },
  {
    "id": "osm_node_5046095878",
    "name": "Gryfny Kurczak",
    "category": "restaurant",
    "coordinates": [
      19.0189511,
      50.2610475
    ],
    "address": "Katowice"
  },
  {
    "id": "osm_node_4845585772",
    "name": "Gryfny Szynk",
    "category": "restaurant",
    "coordinates": [
      19.0279155,
      50.2574374
    ],
    "address": "Katowice"
  },
  {
    "id": "osm_node_7865927063",
    "name": "Ha Long",
    "category": "restaurant",
    "coordinates": [
      18.9689742,
      50.2736483
    ],
    "address": "Katowice"
  },
  {
    "id": "osm_node_6515683522",
    "name": "Hana Sushi",
    "category": "restaurant",
    "coordinates": [
      19.0040496,
      50.269369
    ],
    "address": "Katowice"
  },
  {
    "id": "osm_node_5278928321",
    "name": "Harnaś",
    "category": "restaurant",
    "coordinates": [
      19.0164244,
      50.2540642
    ],
    "address": "Katowice"
  },
  {
    "id": "osm_way_1208706937",
    "name": "Hawai Bar Pizza & Koktajl",
    "category": "restaurant",
    "coordinates": [
      19.0468849,
      50.2447336
    ],
    "address": "Katowice"
  },
  {
    "id": "osm_node_13063599090",
    "name": "Herbaciarnia Czajownia",
    "category": "restaurant",
    "coordinates": [
      19.0209849,
      50.2548687
    ],
    "address": "Plebiscytowa 10, 40-035, Katowice"
  },
  {
    "id": "osm_node_13598775963",
    "name": "Hero Sushi",
    "category": "restaurant",
    "coordinates": [
      19.0209146,
      50.2547303
    ],
    "address": "Katowice"
  },
  {
    "id": "osm_node_6770334269",
    "name": "Hirado",
    "category": "restaurant",
    "coordinates": [
      18.981005,
      50.1997732
    ],
    "address": "Katowice"
  },
  {
    "id": "osm_node_6770334267",
    "name": "Hirado Sushi",
    "category": "restaurant",
    "coordinates": [
      18.9798907,
      50.1997338
    ],
    "address": "Katowice"
  },
  {
    "id": "osm_node_3355801160",
    "name": "Hospoda",
    "category": "restaurant",
    "coordinates": [
      19.0110726,
      50.2603756
    ],
    "address": "Katowice"
  },
  {
    "id": "osm_node_3355801161",
    "name": "Hurry Curry",
    "category": "restaurant",
    "coordinates": [
      19.0262505,
      50.2585173
    ],
    "address": "Katowice"
  },
  {
    "id": "osm_node_2933736009",
    "name": "I love Georgia",
    "category": "restaurant",
    "coordinates": [
      19.0211912,
      50.2654536
    ],
    "address": "Chorzowska 7, 41-101, Katowice"
  },
  {
    "id": "osm_node_1886727296",
    "name": "Icy&Spicy",
    "category": "restaurant",
    "coordinates": [
      19.0104759,
      50.260838
    ],
    "address": "Gliwicka 10, Katowice"
  },
  {
    "id": "osm_node_13162450188",
    "name": "Incognito",
    "category": "restaurant",
    "coordinates": [
      18.9744341,
      50.2659179
    ],
    "address": "Katowice"
  },
  {
    "id": "osm_way_201674918",
    "name": "India Garden Restaurant",
    "category": "restaurant",
    "coordinates": [
      18.9715685,
      50.1774069
    ],
    "address": "Marcina Trojoka 1, 40-748, Katowice"
  },
  {
    "id": "osm_node_9528892408",
    "name": "InMedio",
    "category": "restaurant",
    "coordinates": [
      18.9515111,
      50.2235146
    ],
    "address": "Katowice"
  },
  {
    "id": "osm_node_9528914150",
    "name": "InMedio",
    "category": "restaurant",
    "coordinates": [
      18.9536735,
      50.2238576
    ],
    "address": "Katowice"
  },
  {
    "id": "osm_node_2115988170",
    "name": "Italiana",
    "category": "restaurant",
    "coordinates": [
      18.9594429,
      50.2271402
    ],
    "address": "Panewnicka 67, Katowice"
  },
  {
    "id": "osm_node_12704727024",
    "name": "Jack Bar Katowice",
    "category": "restaurant",
    "coordinates": [
      18.989278,
      50.2203128
    ],
    "address": "Generała Zygmunta Waltera Jankego 14, Katowice"
  },
  {
    "id": "osm_node_6653993338",
    "name": "Jakubiec / Widelczyk",
    "category": "restaurant",
    "coordinates": [
      18.9703098,
      50.2619267
    ],
    "address": "Katowice"
  },
  {
    "id": "osm_node_8873782386",
    "name": "JAZBAR Muchowiec",
    "category": "restaurant",
    "coordinates": [
      19.0227763,
      50.2292079
    ],
    "address": "Katowice"
  },
  {
    "id": "osm_node_1485248691",
    "name": "Jazzclub Hipnoza",
    "category": "restaurant",
    "coordinates": [
      19.0231219,
      50.2529549
    ],
    "address": "Katowice"
  },
  {
    "id": "osm_node_4947804261",
    "name": "Jeff's",
    "category": "restaurant",
    "coordinates": [
      19.0034937,
      50.2719975
    ],
    "address": "Katowice"
  },
  {
    "id": "osm_node_12587724334",
    "name": "Jeju Korea",
    "category": "restaurant",
    "coordinates": [
      19.0339179,
      50.2571644
    ],
    "address": "Katowice"
  },
  {
    "id": "osm_node_1532538320",
    "name": "JG STAJER",
    "category": "restaurant",
    "coordinates": [
      18.9603783,
      50.2273138
    ],
    "address": "Panewnicka 90, 40-761, Katowice"
  },
  {
    "id": "osm_node_4281066925",
    "name": "Jugo Grill",
    "category": "restaurant",
    "coordinates": [
      19.0083937,
      50.2775492
    ],
    "address": "Katowice"
  },
  {
    "id": "osm_node_9145722682",
    "name": "Kafej",
    "category": "restaurant",
    "coordinates": [
      19.0217787,
      50.2653667
    ],
    "address": "Chorzowska 5, 40-121, Katowice"
  },
  {
    "id": "osm_node_7383431141",
    "name": "Kagami Sushi",
    "category": "restaurant",
    "coordinates": [
      19.0059233,
      50.2627313
    ],
    "address": "Gliwicka 44, 40-853, Katowice"
  },
  {
    "id": "osm_node_4306422499",
    "name": "Kapsel",
    "category": "restaurant",
    "coordinates": [
      18.9861508,
      50.2083813
    ],
    "address": "Katowice"
  },
  {
    "id": "osm_node_1887834164",
    "name": "Karczma Pod Młynem",
    "category": "restaurant",
    "coordinates": [
      19.0697397,
      50.2752371
    ],
    "address": "Katowice"
  },
  {
    "id": "osm_node_1878751146",
    "name": "Karczma pod Strzechom",
    "category": "restaurant",
    "coordinates": [
      18.9786048,
      50.2308385
    ],
    "address": "Jakuba Grzyśki 13, 40-560, Katowice"
  },
  {
    "id": "osm_node_4701854277",
    "name": "Kardamon",
    "category": "restaurant",
    "coordinates": [
      19.0145115,
      50.2827528
    ],
    "address": "Katowice"
  },
  {
    "id": "osm_node_5501361321",
    "name": "Kartofelnik",
    "category": "restaurant",
    "coordinates": [
      19.0249693,
      50.2585275
    ],
    "address": "Katowice"
  },
  {
    "id": "osm_node_9972718188",
    "name": "Kaspian Kebab",
    "category": "restaurant",
    "coordinates": [
      18.9750242,
      50.2659735
    ],
    "address": "Katowice"
  },
  {
    "id": "osm_node_3641274979",
    "name": "Kato Blues Faces",
    "category": "restaurant",
    "coordinates": [
      19.0236281,
      50.2583712
    ],
    "address": "Katowice"
  },
  {
    "id": "osm_node_13146745957",
    "name": "Kato Coffee",
    "category": "restaurant",
    "coordinates": [
      19.0085143,
      50.2543221
    ],
    "address": "Katowice"
  },
  {
    "id": "osm_node_11229888925",
    "name": "Kato Pizza",
    "category": "restaurant",
    "coordinates": [
      19.0139273,
      50.2511343
    ],
    "address": "Katowice"
  },
  {
    "id": "osm_node_4366810486",
    "name": "Katowice Nie Lizbona",
    "category": "restaurant",
    "coordinates": [
      19.0248724,
      50.2582796
    ],
    "address": "Katowice"
  },
  {
    "id": "osm_node_5973344086",
    "name": "Kawiarnia fotograficzna",
    "category": "restaurant",
    "coordinates": [
      19.023628,
      50.2599181
    ],
    "address": "Katowice"
  },
  {
    "id": "osm_node_4833555510",
    "name": "Kawiarnia za szybą",
    "category": "restaurant",
    "coordinates": [
      19.0057601,
      50.2777728
    ],
    "address": "Katowice"
  },
  {
    "id": "osm_node_4306551491",
    "name": "Kebab",
    "category": "restaurant",
    "coordinates": [
      18.9892397,
      50.207984
    ],
    "address": "Katowice"
  },
  {
    "id": "osm_node_5502015228",
    "name": "Kebab Faraon",
    "category": "restaurant",
    "coordinates": [
      19.0184387,
      50.2641935
    ],
    "address": "Katowice"
  },
  {
    "id": "osm_node_6443194902",
    "name": "Kebab House",
    "category": "restaurant",
    "coordinates": [
      19.019068,
      50.262316
    ],
    "address": "Katowice"
  },
  {
    "id": "osm_node_1817056026",
    "name": "Kebab King",
    "category": "restaurant",
    "coordinates": [
      19.0184005,
      50.259468
    ],
    "address": "Katowice"
  },
  {
    "id": "osm_node_3098385377",
    "name": "Kebabian",
    "category": "restaurant",
    "coordinates": [
      18.9839279,
      50.2746842
    ],
    "address": "Katowice"
  },
  {
    "id": "osm_node_2305394918",
    "name": "KFC",
    "category": "restaurant",
    "coordinates": [
      19.0619924,
      50.2687465
    ],
    "address": "Katowice"
  },
  {
    "id": "osm_node_3213333511",
    "name": "KFC",
    "category": "restaurant",
    "coordinates": [
      18.9925523,
      50.2710838
    ],
    "address": "Katowice"
  },
  {
    "id": "osm_node_3920519931",
    "name": "KFC",
    "category": "restaurant",
    "coordinates": [
      19.0175068,
      50.259081
    ],
    "address": "Katowice"
  },
  {
    "id": "osm_way_202044161",
    "name": "KFC",
    "category": "restaurant",
    "coordinates": [
      19.0327872,
      50.2449084
    ],
    "address": "Alpejska 1, 40-141, Katowice"
  },
  {
    "id": "osm_way_1012105044",
    "name": "KFC",
    "category": "restaurant",
    "coordinates": [
      19.0030415,
      50.2701323
    ],
    "address": "Katowice"
  },
  {
    "id": "osm_node_4264122077",
    "name": "KILOFEK-catering",
    "category": "restaurant",
    "coordinates": [
      19.095239,
      50.1808487
    ],
    "address": "Kopalniana 5, Mysłowice"
  },
  {
    "id": "osm_node_8188446160",
    "name": "Kilogram",
    "category": "restaurant",
    "coordinates": [
      19.0218757,
      50.2614318
    ],
    "address": "Katowice"
  },
  {
    "id": "osm_node_13920092201",
    "name": "Kiosk. DÖNER",
    "category": "restaurant",
    "coordinates": [
      18.9699275,
      50.2231284
    ],
    "address": "Słupska 2, 40-716, Katowice"
  },
  {
    "id": "osm_node_7658604617",
    "name": "Klawa Kawa",
    "category": "restaurant",
    "coordinates": [
      19.0189191,
      50.2644924
    ],
    "address": "Katowice"
  },
  {
    "id": "osm_way_201774952",
    "name": "Klonowe Latte",
    "category": "restaurant",
    "coordinates": [
      19.0408828,
      50.1971119
    ],
    "address": "Katowice"
  },
  {
    "id": "osm_node_2463786646",
    "name": "klub 33",
    "category": "restaurant",
    "coordinates": [
      19.0430099,
      50.2585556
    ],
    "address": "1 Maja 33, 40-225, Katowice"
  },
  {
    "id": "osm_node_1775981900",
    "name": "Klub Galeria Niegrzeczni",
    "category": "restaurant",
    "coordinates": [
      19.0251736,
      50.2574181
    ],
    "address": "Katowice"
  },
  {
    "id": "osm_node_1911682269",
    "name": "Klub Muzyczny \"Źródło\"",
    "category": "restaurant",
    "coordinates": [
      19.0110374,
      50.2599428
    ],
    "address": "Katowice"
  },
  {
    "id": "osm_node_2798128529",
    "name": "Klub Natura Art",
    "category": "restaurant",
    "coordinates": [
      19.0250289,
      50.2585594
    ],
    "address": "Andrzeja Mielęckiego 4, 40-013, Katowice"
  },
  {
    "id": "osm_node_3355801162",
    "name": "Klub Podróżników - Namaste",
    "category": "restaurant",
    "coordinates": [
      19.0102618,
      50.2599395
    ],
    "address": "Katowice"
  },
  {
    "id": "osm_node_11618078814",
    "name": "Klubokawiarnia Piąty Dom",
    "category": "restaurant",
    "coordinates": [
      19.0141052,
      50.2592342
    ],
    "address": "Jana Matejki 2, 40-077, Katowice"
  },
  {
    "id": "osm_node_3350722552",
    "name": "Klubowa Cocktail Bar",
    "category": "restaurant",
    "coordinates": [
      19.0256559,
      50.2573909
    ],
    "address": "Katowice"
  },
  {
    "id": "osm_node_1817056025",
    "name": "Kofeina",
    "category": "restaurant",
    "coordinates": [
      19.0186367,
      50.2596804
    ],
    "address": "Katowice"
  },
  {
    "id": "osm_node_5324450670",
    "name": "KoKoRea",
    "category": "restaurant",
    "coordinates": [
      18.9679617,
      50.2252099
    ],
    "address": "Katowice"
  },
  {
    "id": "osm_way_666636953",
    "name": "Kokospot",
    "category": "restaurant",
    "coordinates": [
      18.9819707,
      50.1947615
    ],
    "address": "Katowice"
  },
  {
    "id": "osm_node_13038017412",
    "name": "KokoSpot",
    "category": "restaurant",
    "coordinates": [
      18.9770106,
      50.1993886
    ],
    "address": "Katowice"
  },
  {
    "id": "osm_node_6875736962",
    "name": "KOKU Sushi",
    "category": "restaurant",
    "coordinates": [
      19.0057104,
      50.263088
    ],
    "address": "Gliwicka 57, 41-853, Katowice"
  },
  {
    "id": "osm_node_3350722550",
    "name": "Konsensus",
    "category": "restaurant",
    "coordinates": [
      19.0233373,
      50.2587888
    ],
    "address": "Katowice"
  },
  {
    "id": "osm_node_8898480643",
    "name": "Kopalnia Lodów",
    "category": "restaurant",
    "coordinates": [
      19.0207551,
      50.2542168
    ],
    "address": "Katowice"
  },
  {
    "id": "osm_node_2928103130",
    "name": "Korndogarnia",
    "category": "restaurant",
    "coordinates": [
      19.0183198,
      50.2629301
    ],
    "address": "Katowice"
  },
  {
    "id": "osm_node_12087479236",
    "name": "Kosei",
    "category": "restaurant",
    "coordinates": [
      19.0162888,
      50.2607358
    ],
    "address": "Katowice"
  },
  {
    "id": "osm_node_3781371135",
    "name": "Kredens Pub",
    "category": "restaurant",
    "coordinates": [
      19.0314744,
      50.2551403
    ],
    "address": "Katowice"
  },
  {
    "id": "osm_node_2879720544",
    "name": "Krystynka wraca z Wiednia",
    "category": "restaurant",
    "coordinates": [
      19.0153154,
      50.2522526
    ],
    "address": "Tadeusza Kościuszki 45, 40-048 Katowice, Katowice"
  },
  {
    "id": "osm_node_5639244122",
    "name": "Kuchnia domowa",
    "category": "restaurant",
    "coordinates": [
      19.0181155,
      50.2604131
    ],
    "address": "Katowice"
  },
  {
    "id": "osm_node_4984595581",
    "name": "Kuchnia Marché",
    "category": "restaurant",
    "coordinates": [
      19.0031063,
      50.2708808
    ],
    "address": "Katowice"
  },
  {
    "id": "osm_node_11838356527",
    "name": "Kukuryku Bar Mleczny",
    "category": "restaurant",
    "coordinates": [
      19.0101138,
      50.25538
    ],
    "address": "Katowice"
  },
  {
    "id": "osm_node_2119188089",
    "name": "Kurczak z Rożna",
    "category": "restaurant",
    "coordinates": [
      18.9953981,
      50.2324193
    ],
    "address": "Katowice"
  },
  {
    "id": "osm_node_5297947522",
    "name": "Kwartet",
    "category": "restaurant",
    "coordinates": [
      19.0227583,
      50.2518508
    ],
    "address": "Katowice"
  },
  {
    "id": "osm_node_1905017538",
    "name": "Kwintesencja smaku",
    "category": "restaurant",
    "coordinates": [
      18.9769433,
      50.2355907
    ],
    "address": "Katowice"
  },
  {
    "id": "osm_node_4296985690",
    "name": "La Cantina",
    "category": "restaurant",
    "coordinates": [
      19.0467604,
      50.2442027
    ],
    "address": "Katowice"
  },
  {
    "id": "osm_node_10031744417",
    "name": "La Cucina",
    "category": "restaurant",
    "coordinates": [
      19.0046395,
      50.236873
    ],
    "address": "Katowice"
  },
  {
    "id": "osm_node_9505665606",
    "name": "La Firinda",
    "category": "restaurant",
    "coordinates": [
      19.0232843,
      50.2586265
    ],
    "address": "Katowice"
  },
  {
    "id": "osm_node_12387369776",
    "name": "La Pasta Bar",
    "category": "restaurant",
    "coordinates": [
      19.0204007,
      50.2801808
    ],
    "address": "Katowice"
  },
  {
    "id": "osm_node_6609113176",
    "name": "La Squadra",
    "category": "restaurant",
    "coordinates": [
      18.9839832,
      50.2567219
    ],
    "address": "Feliksa Bocheńskiego 109, 40-816, Katowice"
  },
  {
    "id": "osm_node_6770334240",
    "name": "La Tavola",
    "category": "restaurant",
    "coordinates": [
      18.9817215,
      50.199783
    ],
    "address": "Katowice"
  },
  {
    "id": "osm_node_1532538316",
    "name": "La Vineria",
    "category": "restaurant",
    "coordinates": [
      18.9606833,
      50.2272667
    ],
    "address": "Panewnicka 88, 40-761, Katowice"
  },
  {
    "id": "osm_node_2442705306",
    "name": "Lajkonik",
    "category": "restaurant",
    "coordinates": [
      19.0184338,
      50.259983
    ],
    "address": "Katowice"
  },
  {
    "id": "osm_node_4897122985",
    "name": "Lajkonik",
    "category": "restaurant",
    "coordinates": [
      19.0070878,
      50.270361
    ],
    "address": "Katowice"
  },
  {
    "id": "osm_node_8898610714",
    "name": "Lajkonik",
    "category": "restaurant",
    "coordinates": [
      19.0220829,
      50.2585254
    ],
    "address": "Katowice"
  },
  {
    "id": "osm_node_4886346501",
    "name": "Lala Seul",
    "category": "restaurant",
    "coordinates": [
      19.0236427,
      50.2584921
    ],
    "address": "Katowice"
  },
  {
    "id": "osm_node_6000701576",
    "name": "LaPrimera",
    "category": "restaurant",
    "coordinates": [
      19.0061317,
      50.2626703
    ],
    "address": "Katowice"
  },
  {
    "id": "osm_node_5037053587",
    "name": "Latem",
    "category": "restaurant",
    "coordinates": [
      19.0276722,
      50.2330264
    ],
    "address": "Katowice"
  },
  {
    "id": "osm_node_4915747537",
    "name": "Lech",
    "category": "restaurant",
    "coordinates": [
      18.989202,
      50.2671509
    ],
    "address": "Katowice"
  },
  {
    "id": "osm_node_3360242312",
    "name": "Len Arte",
    "category": "restaurant",
    "coordinates": [
      19.0275829,
      50.2572402
    ],
    "address": "Katowice"
  },
  {
    "id": "osm_node_6443194901",
    "name": "Lepione",
    "category": "restaurant",
    "coordinates": [
      19.0189817,
      50.2623438
    ],
    "address": "Katowice"
  },
  {
    "id": "osm_node_9422361719",
    "name": "Leśne Patio",
    "category": "restaurant",
    "coordinates": [
      18.9344221,
      50.1972358
    ],
    "address": "Tadeusza Kościuszki 352, 40-690, Katowice"
  },
  {
    "id": "osm_node_6653993336",
    "name": "LeZIZ Kebab",
    "category": "restaurant",
    "coordinates": [
      18.9692538,
      50.2623145
    ],
    "address": "Katowice"
  },
  {
    "id": "osm_node_2456849380",
    "name": "Li Long",
    "category": "restaurant",
    "coordinates": [
      19.0289548,
      50.2580752
    ],
    "address": "Katowice"
  },
  {
    "id": "osm_node_3988774042",
    "name": "Little Hanoi",
    "category": "restaurant",
    "coordinates": [
      19.0225332,
      50.2586215
    ],
    "address": "Katowice"
  },
  {
    "id": "osm_node_7197006557",
    "name": "Lokal Bakery",
    "category": "restaurant",
    "coordinates": [
      19.0187584,
      50.2714826
    ],
    "address": "Katowice"
  },
  {
    "id": "osm_node_10763753592",
    "name": "LOKAL Bakery",
    "category": "restaurant",
    "coordinates": [
      18.9740954,
      50.2104219
    ],
    "address": "Armii Krajowej 67, 40-671, Katowice"
  },
  {
    "id": "osm_node_6720895238",
    "name": "Lolly Polly",
    "category": "restaurant",
    "coordinates": [
      19.0178951,
      50.2591852
    ],
    "address": "Katowice"
  },
  {
    "id": "osm_node_1775981901",
    "name": "Longman Bistro",
    "category": "restaurant",
    "coordinates": [
      19.0269863,
      50.2572787
    ],
    "address": "Katowice"
  },
  {
    "id": "osm_node_1775031271",
    "name": "Lorneta z Meduzą",
    "category": "restaurant",
    "coordinates": [
      19.025321,
      50.2574095
    ],
    "address": "Katowice"
  },