[
  {
    "id": "osm_324685616",
    "name": "Difu",
    "category": "shop",
    "coordinates": [
      19.0127556,
      50.2619216
    ],
    "address": "Katowice"
  },
  {
    "id": "osm_394576131",
    "name": "Dworek Pod Lipami",
    "category": "restaurant",
    "coordinates": [
      19.0670677,
      50.2221554
    ],
    "address": "Plac Pod Lipami 1, 40-467, Katowice"
  },
  {
    "id": "osm_394576288",
    "name": "Piekarnia Ciastkarnia Michalski",
    "category": "shop",
    "coordinates": [
      19.0644,
      50.2218521
    ],
    "address": "Katowice"
  },
  {
    "id": "osm_394576290",
    "name": "Pli Pla Plo",
    "category": "restaurant",
    "coordinates": [
      19.0673766,
      50.2226933
    ],
    "address": "Gościnna 21, Katowice"
  },
  {
    "id": "osm_464266687",
    "name": "Apteka Majakowskiego",
    "category": "pharmacy",
    "coordinates": [
      19.2125267,
      50.3230147
    ],
    "address": "Katowice"
  },
  {
    "id": "osm_476584796",
    "name": "Dbam o Zdrowie",
    "category": "pharmacy",
    "coordinates": [
      19.0633104,
      50.2258402
    ],
    "address": "Katowice"
  },
  {
    "id": "osm_482215972",
    "name": "Odlot",
    "category": "restaurant",
    "coordinates": [
      19.0313914,
      50.240883
    ],
    "address": "Katowice"
  },
  {
    "id": "osm_484995523",
    "name": "Dbam o Zdrowie",
    "category": "pharmacy",
    "coordinates": [
      19.0741779,
      50.318665
    ],
    "address": "Katowice"
  },
  {
    "id": "osm_484995855",
    "name": "Biedronka",
    "category": "shop",
    "coordinates": [
      19.0718375,
      50.3214798
    ],
    "address": "Katowice"
  },
  {
    "id": "osm_484996031",
    "name": "Pizza Hut",
    "category": "restaurant",
    "coordinates": [
      19.1051417,
      50.3189362
    ],
    "address": "Będzińska 80, Katowice"
  },
  {
    "id": "osm_496107272",
    "name": "Meblo-Mart",
    "category": "shop",
    "coordinates": [
      19.0761035,
      50.2231238
    ],
    "address": "Katowice"
  },
  {
    "id": "osm_497090541",
    "name": "Apovita",
    "category": "pharmacy",
    "coordinates": [
      19.1368194,
      50.3484152
    ],
    "address": "Pokoju 14, 42-504, Będzin"
  },
  {
    "id": "osm_517969693",
    "name": "Zenit",
    "category": "shop",
    "coordinates": [
      19.0223416,
      50.2590836
    ],
    "address": "Katowice"
  },
  {
    "id": "osm_587876259",
    "name": "Restauracja \"Na Winklu\"",
    "category": "restaurant",
    "coordinates": [
      18.9524181,
      50.2985566
    ],
    "address": "Katowice"
  },
  {
    "id": "osm_631025258",
    "name": "Miejska Biblioteka Publiczna w Katowicach Filia nr 33",
    "category": "library",
    "coordinates": [
      19.0415051,
      50.2642832
    ],
    "address": "Katowice"
  },
  {
    "id": "osm_655152523",
    "name": "Bierhalle",
    "category": "restaurant",
    "coordinates": [
      19.0021469,
      50.2703506
    ],
    "address": "Katowice"
  },
  {
    "id": "osm_661675007",
    "name": "Technikum nr 4",
    "category": "school",
    "coordinates": [
      18.9961228,
      50.2445864
    ],
    "address": "Mikołowska 131, 40-592, Katowice"
  },
  {
    "id": "osm_693509665",
    "name": "Marysin Dwór",
    "category": "restaurant",
    "coordinates": [
      18.9900797,
      50.2630707
    ],
    "address": "Józefa Pukowca 17a, 40-816, Katowice"
  },
  {
    "id": "osm_734878394",
    "name": "Żabka",
    "category": "shop",
    "coordinates": [
      19.0226168,
      50.2661397
    ],
    "address": "Katowice"
  },
  {
    "id": "osm_778112940",
    "name": "Kartel",
    "category": "restaurant",
    "coordinates": [
      18.9521468,
      50.2981924
    ],
    "address": "Katowice"
  },
  {
    "id": "osm_778540398",
    "name": "Szkoła podstawowa numer 13 imienia Henryka Sienkiewicza",
    "category": "school",
    "coordinates": [
      19.1580391,
      50.2234851
    ],
    "address": "Księdza kardynała Augusta Hlonda 14, 41-412, Mysłowice"
  },
  {
    "id": "osm_778540408",
    "name": "Julka",
    "category": "shop",
    "coordinates": [
      19.1412378,
      50.2030484
    ],
    "address": "Katowice"
  },
  {
    "id": "osm_778540412",
    "name": "Nemrut Kebab",
    "category": "restaurant",
    "coordinates": [
      19.1569662,
      50.2170348
    ],
    "address": "Katowice"
  },
  {
    "id": "osm_778545852",
    "name": "convenience",
    "category": "shop",
    "coordinates": [
      19.1131,
      50.2404391
    ],
    "address": "Katowice"
  },
  {
    "id": "osm_778545855",
    "name": "convenience",
    "category": "shop",
    "coordinates": [
      19.1139261,
      50.2391833
    ],
    "address": "Katowice"
  },
  {
    "id": "osm_778545858",
    "name": "convenience",
    "category": "shop",
    "coordinates": [
      19.1165529,
      50.2378891
    ],
    "address": "Katowice"
  },
  {
    "id": "osm_778574463",
    "name": "Viking",
    "category": "restaurant",
    "coordinates": [
      19.1384629,
      50.2448235
    ],
    "address": "Katowice"
  },
  {
    "id": "osm_778574477",
    "name": "clothes",
    "category": "shop",
    "coordinates": [
      19.1403298,
      50.2430122
    ],
    "address": "Katowice"
  },
  {
    "id": "osm_778574554",
    "name": "Centrum 4",
    "category": "shop",
    "coordinates": [
      19.1378547,
      50.2423597
    ],
    "address": "Katowice"
  },
  {
    "id": "osm_778574651",
    "name": "Rabat",
    "category": "shop",
    "coordinates": [
      19.1601296,
      50.2190055
    ],
    "address": "Katowice"
  },
  {
    "id": "osm_778574740",
    "name": "Osteria Fenicottero",
    "category": "restaurant",
    "coordinates": [
      19.1571633,
      50.2184625
    ],
    "address": "Katowice"
  },
  {
    "id": "osm_794055377",
    "name": "school",
    "category": "school",
    "coordinates": [
      19.1381978,
      50.3583791
    ],
    "address": "Katowice"
  },
  {
    "id": "osm_795319574",
    "name": "Dr. Max",
    "category": "pharmacy",
    "coordinates": [
      19.1585571,
      50.2063134
    ],
    "address": "Mikołaja Reja 36, 41-404, Mysłowice"
  },
  {
    "id": "osm_795341712",
    "name": "Biedronka",
    "category": "shop",
    "coordinates": [
      19.1999648,
      50.3242136
    ],
    "address": "Królowej Jadwigi 23, Dąbrowa Górnicza"
  },
  {
    "id": "osm_799211872",
    "name": "Apteka Blisko Ciebie",
    "category": "pharmacy",
    "coordinates": [
      19.2052732,
      50.3245667
    ],
    "address": "Janusza Korczaka 1-3, 41-300, Dąbrowa Górnicza"
  },
  {
    "id": "osm_799212215",
    "name": "Sklep medyczny",
    "category": "shop",
    "coordinates": [
      19.1894384,
      50.3255998
    ],
    "address": "Górników Redenu 2, Dąbrowa Górnicza"
  },
  {
    "id": "osm_799212528",
    "name": "Samo zdrowie",
    "category": "shop",
    "coordinates": [
      19.1853652,
      50.3253664
    ],
    "address": "Jana III Sobieskiego 3, Dąbrowa Górnicza"
  },
  {
    "id": "osm_799213769",
    "name": "Żabka",
    "category": "shop",
    "coordinates": [
      19.1866332,
      50.3266799
    ],
    "address": "Aleja Tadeusza Kościuszki 7a, 41-300, Dąbrowa Górnicza"
  },
  {
    "id": "osm_799214339",
    "name": "Fuoco",
    "category": "restaurant",
    "coordinates": [
      19.1893428,
      50.3253221
    ],
    "address": "Górników Redenu 2, 41-300, Dąbrowa Górnicza"
  },
  {
    "id": "osm_799214887",
    "name": "Apteka Blisko Ciebie",
    "category": "pharmacy",
    "coordinates": [
      19.1813369,
      50.3254435
    ],
    "address": "Katowice"
  },
  {
    "id": "osm_799215731",
    "name": "Gabinet Kosmetyczny \"Livia\"",
    "category": "shop",
    "coordinates": [
      19.1865298,
      50.3272785
    ],
    "address": "Aleja Tadeusza Kościuszki 5, Dąbrowa Górnicza"
  },
  {
    "id": "osm_805051298",
    "name": "stationery",
    "category": "shop",
    "coordinates": [
      19.2120077,
      50.3232239
    ],
    "address": "Katowice"
  },
  {
    "id": "osm_805373978",
    "name": "Nissan Szymański",
    "category": "shop",
    "coordinates": [
      19.2119259,
      50.3283835
    ],
    "address": "Katowice"
  },
  {
    "id": "osm_805374007",
    "name": "Żabka",
    "category": "shop",
    "coordinates": [
      19.2081131,
      50.3251138
    ],
    "address": "Katowice"
  },
  {
    "id": "osm_805374103",
    "name": "Żabka",
    "category": "shop",
    "coordinates": [
      19.2015551,
      50.3255576
    ],
    "address": "Katowice"
  },
  {
    "id": "osm_805374136",
    "name": "car_repair",
    "category": "shop",
    "coordinates": [
      19.213954,
      50.3280174
    ],
    "address": "Katowice"
  },
  {
    "id": "osm_806659053",
    "name": "Pizzeria Raj",
    "category": "restaurant",
    "coordinates": [
      19.2008342,
      50.3225146
    ],
    "address": "1 Maja 33, Dąbrowa Górnicza"
  },
  {
    "id": "osm_828436688",
    "name": "Miejska Biblioteka Publiczna - Filia nr 4",
    "category": "library",
    "coordinates": [
      19.200704,
      50.3247241
    ],
    "address": "Władysława Reymonta 14, 41-300, Dąbrowa Górnicza"
  },
  {
    "id": "osm_829137206",
    "name": "convenience",
    "category": "shop",
    "coordinates": [
      19.1975225,
      50.3418155
    ],
    "address": "Katowice"
  },
  {
    "id": "osm_833674156",
    "name": "Apteka \"Główna\"",
    "category": "pharmacy",
    "coordinates": [
      19.0944159,
      50.2629011
    ],
    "address": "Katowice"
  },
  {
    "id": "osm_833674157",
    "name": "Apteka \"Pod kwiatami\"",
    "category": "pharmacy",
    "coordinates": [
      19.0991859,
      50.2624036
    ],
    "address": "Wiosny Ludów 21, 40-374, Katowice"
  },
  {
    "id": "osm_837709124",
    "name": "Technikum nr 2 Architektoniczno-Budowlane",
    "category": "school",
    "coordinates": [
      19.1878279,
      50.3023874
    ],
    "address": "Katowice"
  },
  {
    "id": "osm_839030298",
    "name": "Apteka Dr.Max",
    "category": "pharmacy",
    "coordinates": [
      19.0688621,
      50.277164
    ],
    "address": "Katowice"
  },
  {
    "id": "osm_850737038",
    "name": "ABAK",
    "category": "shop",
    "coordinates": [
      19.0528379,
      50.2739877
    ],
    "address": "Generała Henryka le Ronda 96, 40-302, Katowice"
  },
  {
    "id": "osm_860304631",
    "name": "Irena i Marek Kściuczyk",
    "category": "shop",
    "coordinates": [
      19.0483203,
      50.2591795
    ],
    "address": "Katowice"
  },
  {
    "id": "osm_860304640",
    "name": "convenience",
    "category": "shop",
    "coordinates": [
      19.0486647,
      50.2592221
    ],
    "address": "Katowice"
  },
  {
    "id": "osm_873618112",
    "name": "Metamorfozza",
    "category": "shop",
    "coordinates": [
      19.0453352,
      50.1972586
    ],
    "address": "Bielska 5a, 40-749, Katowice"
  },
  {
    "id": "osm_876320880",
    "name": "Lewiatan",
    "category": "shop",
    "coordinates": [
      19.0434813,
      50.1981742
    ],
    "address": "Katowice"
  },
  {
    "id": "osm_884674530",
    "name": "Euro Sklep",
    "category": "shop",
    "coordinates": [
      19.0446368,
      50.1982914
    ],
    "address": "Krzysztofa Kamila Baczyńskiego 3, Katowice"
  },
  {
    "id": "osm_885432835",
    "name": "greengrocer",
    "category": "shop",
    "coordinates": [
      19.0530136,
      50.2600239
    ],
    "address": "Katowice"
  },
  {
    "id": "osm_885432841",
    "name": "butcher",
    "category": "shop",
    "coordinates": [
      19.0485581,
      50.2591999
    ],
    "address": "Katowice"
  },
  {
    "id": "osm_932496262",
    "name": "Istanbul Kebab",
    "category": "restaurant",
    "coordinates": [
      19.1864205,
      50.3218284
    ],
    "address": "Aleja Tadeusza Kościuszki 44, Dąbrowa Górnicza"
  },
  {
    "id": "osm_935801443",
    "name": "Tak Czytam",
    "category": "shop",
    "coordinates": [
      19.0187924,
      50.2596729
    ],
    "address": "Katowice"
  },
  {
    "id": "osm_935803388",
    "name": "Z Liścia",
    "category": "restaurant",
    "coordinates": [
      19.01099,
      50.2552373
    ],
    "address": "Plac doktora Józefa Rostka 2, Katowice"
  },
  {
    "id": "osm_978956336",
    "name": "bicycle",
    "category": "shop",
    "coordinates": [
      19.0698401,
      50.2221459
    ],
    "address": "Katowice"
  },
  {
    "id": "osm_1066166088",
    "name": "Bike Atelier",
    "category": "shop",
    "coordinates": [
      19.1239529,
      50.2762711
    ],
    "address": "3 Maja 1, 41-200, Sosnowiec"
  },
  {
    "id": "osm_1076148691",
    "name": "H&M",
    "category": "shop",
    "coordinates": [
      19.0181257,
      50.2601938
    ],
    "address": "Katowice"
  },
  {
    "id": "osm_1076148697",
    "name": "McDonald's",
    "category": "restaurant",
    "coordinates": [
      19.0181064,
      50.2605393
    ],
    "address": "Katowice"
  },
  {
    "id": "osm_1076148726",
    "name": "Restauracja Patio",
    "category": "restaurant",
    "coordinates": [
      19.0180948,
      50.2607064
    ],
    "address": "Katowice"
  },
  {
    "id": "osm_1076148738",
    "name": "Biała Brama",
    "category": "restaurant",
    "coordinates": [
      19.0177607,
      50.2610161
    ],
    "address": "Katowice"
  },
  {
    "id": "osm_1076148755",
    "name": "Pharmavit",
    "category": "pharmacy",
    "coordinates": [
      19.0184279,
      50.2601002
    ],
    "address": "Katowice"
  },
  {
    "id": "osm_1076148771",
    "name": "Pod Siódemką",
    "category": "restaurant",
    "coordinates": [
      19.0181153,
      50.2603396
    ],
    "address": "Katowice"
  },
  {
    "id": "osm_1076148793",
    "name": "Jan Bielesz",
    "category": "shop",
    "coordinates": [
      19.0184234,
      50.2606123
    ],
    "address": "Katowice"
  },
  {
    "id": "osm_1076148809",
    "name": "Bob Klub Cafe",
    "category": "restaurant",
    "coordinates": [
      19.0171763,
      50.261053
    ],
    "address": "Katowice"
  },
  {
    "id": "osm_1076148822",
    "name": "Index",
    "category": "shop",
    "coordinates": [
      19.0181049,
      50.2606274
    ],
    "address": "Katowice"
  },
  {
    "id": "osm_1076148826",
    "name": "Abraksas",
    "category": "shop",
    "coordinates": [
      19.0180911,
      50.260769
    ],
    "address": "Katowice"
  },
  {
    "id": "osm_1082640022",
    "name": "Oberża",
    "category": "restaurant",
    "coordinates": [
      19.0934988,
      50.32126
    ],
    "address": "Katowice"
  },
  {
    "id": "osm_1200409693",
    "name": "Bike Cafe",
    "category": "restaurant",
    "coordinates": [
      18.9829691,
      50.2872954
    ],
    "address": "Katowice"
  },
  {
    "id": "osm_1200409761",
    "name": "Cappuccino",
    "category": "restaurant",
    "coordinates": [
      18.974862,
      50.2910901
    ],
    "address": "Katowice"
  },
  {
    "id": "osm_1221198461",
    "name": "MINI-MARKET",
    "category": "shop",
    "coordinates": [
      19.216503,
      50.1776571
    ],
    "address": "Batalionów Chłopskich 19, 41-409, Mysłowice"
  },
  {
    "id": "osm_1221579107",
    "name": "NOVUM Mysłowice",
    "category": "shop",
    "coordinates": [
      19.1285963,
      50.1865104
    ],
    "address": "Orła Białego 58, 41-409, Mysłowice"
  },
  {
    "id": "osm_1240854266",
    "name": "Strzelec",
    "category": "restaurant",
    "coordinates": [
      19.0046417,
      50.2532287
    ],
    "address": "Katowice"
  },
  {
    "id": "osm_1260091713",
    "name": "Piekarnia Michalski",
    "category": "shop",
    "coordinates": [
      19.0810599,
      50.2434146
    ],
    "address": "Katowice"
  },
  {
    "id": "osm_1260091810",
    "name": "Sklep Ogólnospożywczy \"U Lidzi\"",
    "category": "shop",
    "coordinates": [
      19.0817475,
      50.2436906
    ],
    "address": "Katowice"
  },
  {
    "id": "osm_1260091877",
    "name": "Apteka Pod Kwiatami",
    "category": "pharmacy",
    "coordinates": [
      19.0818009,
      50.2434224
    ],
    "address": "Katowice"
  },
  {
    "id": "osm_1260091980",
    "name": "Teresa",
    "category": "shop",
    "coordinates": [
      19.081339,
      50.2432202
    ],
    "address": "Katowice"
  },
  {
    "id": "osm_1279674270",
    "name": "Społem",
    "category": "shop",
    "coordinates": [
      18.9819078,
      50.2102037
    ],
    "address": "Generała Zygmunta Waltera Jankego 122, 40-613, Katowice"
  },
  {
    "id": "osm_1279822203",
    "name": "MK BIKE",
    "category": "shop",
    "coordinates": [
      19.133975,
      50.2739716
    ],
    "address": "Katowice"
  },
  {
    "id": "osm_1308856490",
    "name": "hairdresser",
    "category": "shop",
    "coordinates": [
      19.2162063,
      50.3197828
    ],
    "address": "Katowice"
  },
  {
    "id": "osm_1308856506",
    "name": "Kolporter",
    "category": "shop",
    "coordinates": [
      19.2135159,
      50.3234173
    ],
    "address": "Katowice"
  },
  {
    "id": "osm_1308856507",
    "name": "doityourself",
    "category": "shop",
    "coordinates": [
      19.2120829,
      50.3232012
    ],
    "address": "Katowice"
  },
  {
    "id": "osm_1309374172",
    "name": "Zakład Optyczny Izabela Gil",
    "category": "shop",
    "coordinates": [
      19.201387,
      50.3235852
    ],
    "address": "Władysława Reymonta 32, 41-300, Dąbrowa Górnicza"
  },
  {
    "id": "osm_1312507243",
    "name": "Rabat",
    "category": "shop",
    "coordinates": [
      18.9908848,
      50.2436898
    ],
    "address": "Katowice"
  },
  {
    "id": "osm_1320859787",
    "name": "Żabka",
    "category": "shop",
    "coordinates": [
      19.1802999,
      50.3686411
    ],
    "address": "Katowice"
  },
  {
    "id": "osm_1362704238",
    "name": "Biedronka",
    "category": "shop",
    "coordinates": [
      19.0851847,
      50.3511529
    ],
    "address": "Katowice"
  },
  {
    "id": "osm_1406257457",
    "name": "Pizzeria Fresco",
    "category": "restaurant",
    "coordinates": [
      19.2234153,
      50.3334482
    ],
    "address": "III Powstania Śląskiego 6, 41-300, Dąbrowa Górnicza"
  },
  {
    "id": "osm_1414842153",
    "name": "Bolina",
    "category": "restaurant",
    "coordinates": [
      19.0864845,
      50.231737
    ],
    "address": "Katowice"
  },
  {
    "id": "osm_1427355754",
    "name": "MOL",
    "category": "shop",
    "coordinates": [
      19.2331061,
      50.2253862
    ],
    "address": "Katowice"
  },
  {
    "id": "osm_1438774114",
    "name": "Maciuś",
    "category": "shop",
    "coordinates": [
      19.1887347,
      50.3069773
    ],
    "address": "Katowice"
  },
  {
    "id": "osm_1448227891",
    "name": "Biedronka",
    "category": "shop",
    "coordinates": [
      18.9762766,
      50.2258116
    ],
    "address": "Katowice"
  },
  {
    "id": "osm_1451051175",
    "name": "Probio Sfera",
    "category": "shop",
    "coordinates": [
      18.995596,
      50.2344306
    ],
    "address": "Brynowska 47, 40-584, Katowice"
  },
  {
    "id": "osm_1451051176",
    "name": "Żabka",
    "category": "shop",
    "coordinates": [
      18.9956562,
      50.2343051
    ],
    "address": "Katowice"
  },
  {
    "id": "osm_1451051180",
    "name": "Galeria Kwiatowa Kaktus",
    "category": "shop",
    "coordinates": [
      19.0022633,
      50.2332457
    ],
    "address": "Katowice"
  },
  {
    "id": "osm_1455060507",
    "name": "Wiejska Chatka",
    "category": "restaurant",
    "coordinates": [
      19.0230781,
      50.268223
    ],
    "address": "Katowice"
  },
  {
    "id": "osm_1464395487",
    "name": "Bratex",
    "category": "shop",
    "coordinates": [
      19.2496769,
      50.2035082
    ],
    "address": "Stanisława Moniuszki 62, Katowice"
  },
  {
    "id": "osm_1470641388",
    "name": "Carrefour Market",
    "category": "shop",
    "coordinates": [
      18.9789617,
      50.1997913
    ],
    "address": "Bażantów 2, 40-668, Katowice"
  },
  {
    "id": "osm_1470642315",
    "name": "Thai-Pan Oriental Taste",
    "category": "restaurant",
    "coordinates": [
      18.9809339,
      50.1994623
    ],
    "address": "Arkadiusza Puchały 6, 40-668, Katowice"
  },
  {
    "id": "osm_1470644824",
    "name": "Apteka VITALIS",
    "category": "pharmacy",
    "coordinates": [
      18.9786541,
      50.1996794
    ],
    "address": "Bażantów 2, 40-668, Katowice"
  },
  {
    "id": "osm_1485599854",
    "name": "Pod Lwem",
    "category": "restaurant",
    "coordinates": [
      19.1157659,
      50.358803
    ],
    "address": "Katowice"
  },
  {
    "id": "osm_1489139316",
    "name": "Bud-Metal",
    "category": "shop",
    "coordinates": [
      19.0694064,
      50.2254301
    ],
    "address": "Miła 1, 40-464, Katowice"
  },
  {
    "id": "osm_1489139326",
    "name": "Restauracja 36",
    "category": "restaurant",
    "coordinates": [
      19.0609071,
      50.2198963
    ],
    "address": "Katowice"
  },
  {
    "id": "osm_1489139334",
    "name": "U Francika",
    "category": "shop",
    "coordinates": [
      19.0693969,
      50.2232892
    ],
    "address": "Katowice"
  },
  {
    "id": "osm_1489139401",
    "name": "Agness",
    "category": "shop",
    "coordinates": [
      19.0699561,
      50.2240407
    ],
    "address": "Katowice"
  },
  {
    "id": "osm_1489139438",
    "name": "Rybny Raj",
    "category": "shop",
    "coordinates": [
      19.0628465,
      50.224331
    ],
    "address": "Katowice"
  },
  {
    "id": "osm_1490583331",
    "name": "Altamira",
    "category": "shop",
    "coordinates": [
      19.0625788,
      50.2245351
    ],
    "address": "Katowice"
  },
  {
    "id": "osm_1490583364",
    "name": "Mirage",
    "category": "shop",
    "coordinates": [
      19.063239,
      50.2244517
    ],
    "address": "Katowice"
  },
  {
    "id": "osm_1490583366",
    "name": "Pizzeria Sycyliana",
    "category": "restaurant",
    "coordinates": [
      19.0630017,
      50.2244563
    ],
    "address": "Katowice"
  },
  {
    "id": "osm_1490583428",
    "name": "Lotto",
    "category": "shop",
    "coordinates": [
      19.0629757,
      50.2241516
    ],
    "address": "Katowice"
  },
  {
    "id": "osm_1490598479",
    "name": "Eurorem",
    "category": "shop",
    "coordinates": [
      19.0624809,
      50.2246899
    ],
    "address": "Katowice"
  },
  {
    "id": "osm_1490598484",
    "name": "Kwiaciarnia Gardenia",
    "category": "shop",
    "coordinates": [
      19.0622975,
      50.2246619
    ],
    "address": "Katowice"
  },
  {
    "id": "osm_1490598542",
    "name": "butcher",
    "category": "shop",
    "coordinates": [
      19.0632488,
      50.2246762
    ],
    "address": "Katowice"
  },
  {
    "id": "osm_1490598551",
    "name": "Express Bistro",
    "category": "restaurant",
    "coordinates": [
      19.0632448,
      50.2247633
    ],
    "address": "Katowice"
  },
  {
    "id": "osm_1509393796",
    "name": "Balhan Kebab",
    "category": "restaurant",
    "coordinates": [
      19.2239625,
      50.3364995
    ],
    "address": "Józefa Bema 8, 41-300, Dąbrowa Górnicza"
  },
  {
    "id": "osm_1517980001",
    "name": "Domowe Wyroby Garmażeryjne",
    "category": "shop",
    "coordinates": [
      18.9864233,
      50.2671058
    ],
    "address": "Katowice"
  },
  {
    "id": "osm_1517980033",
    "name": "Wielbłąd Alkohole",
    "category": "shop",
    "coordinates": [
      18.9803725,
      50.2686419
    ],
    "address": "Katowice"
  },
  {
    "id": "osm_1518004598",
    "name": "Na Dębie",
    "category": "pharmacy",
    "coordinates": [
      19.005393,
      50.2790974
    ],
    "address": "Katowice"
  },
  {
    "id": "osm_1518004601",
    "name": "Żabka",
    "category": "shop",
    "coordinates": [
      19.0053012,
      50.2791381
    ],
    "address": "Katowice"
  },
  {
    "id": "osm_1518019368",
    "name": "Delikatesy „Pod 3”",
    "category": "shop",
    "coordinates": [
      18.9941346,
      50.2731524
    ],
    "address": "Katowice"
  },
  {
    "id": "osm_1527963310",
    "name": "Akademia Sztuki Kulinarnej Anmark",
    "category": "restaurant",
    "coordinates": [
      19.0636229,
      50.3092089
    ],
    "address": "Katowice"
  },
  {
    "id": "osm_1528079735",
    "name": "MAN Truck & Bus",
    "category": "shop",
    "coordinates": [
      19.1058825,
      50.3165514
    ],
    "address": "Katowice"
  },
  {
    "id": "osm_1528758375",
    "name": "Paplok",
    "category": "shop",
    "coordinates": [
      19.0168866,
      50.2616736
    ],
    "address": "Katowice"
  },
  {
    "id": "osm_1532505630",
    "name": "Żabka",
    "category": "shop",
    "coordinates": [
      18.9529851,
      50.2314261
    ],
    "address": "Krucza 1, 40-758, Katowice"
  },
  {
    "id": "osm_1532538316",
    "name": "La Vineria",
    "category": "restaurant",
    "coordinates": [
      18.9606833,
      50.2272667
    ],
    "address": "Panewnicka 88, 40-761, Katowice"
  },
  {
    "id": "osm_1532538320",
    "name": "JG STAJER",
    "category": "restaurant",
    "coordinates": [
      18.9603783,
      50.2273138
    ],
    "address": "Panewnicka 90, 40-761, Katowice"
  },
  {
    "id": "osm_1532538334",
    "name": "Żabka",
    "category": "shop",
    "coordinates": [
      18.9597796,
      50.2273284
    ],
    "address": "Katowice"
  },
  {
    "id": "osm_1534233806",
    "name": "Fresh",
    "category": "shop",
    "coordinates": [
      18.9678546,
      50.2255312
    ],
    "address": "Panewnicka 40, Katowice"
  },
  {
    "id": "osm_1534233812",
    "name": "Ziko Apteka",
    "category": "pharmacy",
    "coordinates": [
      18.96808,
      50.2255823
    ],
    "address": "Katowice"
  },
  {
    "id": "osm_1548844110",
    "name": "Viet-long",
    "category": "restaurant",
    "coordinates": [
      19.123542,
      50.2695668
    ],
    "address": "Katowice"
  },
  {
    "id": "osm_1557333679",
    "name": "Leśna Park",
    "category": "restaurant",
    "coordinates": [
      19.2431286,
      50.2996548
    ],
    "address": "Anki Kowalskiej 88, 41-215, Sosnowiec"
  },
  {
    "id": "osm_1557337772",
    "name": "hairdresser",
    "category": "shop",
    "coordinates": [
      19.2391451,
      50.2933476
    ],
    "address": "Katowice"
  },
  {
    "id": "osm_1557338367",
    "name": "Bunkier",
    "category": "shop",
    "coordinates": [
      19.2373049,
      50.2926981
    ],
    "address": "Katowice"
  },
  {
    "id": "osm_1557340532",
    "name": "butcher",
    "category": "shop",
    "coordinates": [
      19.2403494,
      50.2938252
    ],
    "address": "Katowice"
  },
  {
    "id": "osm_1557344502",
    "name": "kiosk",
    "category": "shop",
    "coordinates": [
      19.2373953,
      50.2927314
    ],
    "address": "Katowice"
  },
  {
    "id": "osm_1557345971",
    "name": "clothes",
    "category": "shop",
    "coordinates": [
      19.2388875,
      50.2932685
    ],
    "address": "Katowice"
  },
  {
    "id": "osm_1557346145",
    "name": "hairdresser",
    "category": "shop",
    "coordinates": [
      19.2392157,
      50.29323
    ],
    "address": "Katowice"
  },
  {
    "id": "osm_1557352160",
    "name": "car_repair",
    "category": "shop",
    "coordinates": [
      19.2323004,
      50.2998835
    ],
    "address": "Katowice"
  },
  {
    "id": "osm_1557352301",
    "name": "Kwiaciarnia Iwona",
    "category": "shop",
    "coordinates": [
      19.2319244,
      50.2979234
    ],
    "address": "Katowice"
  },
  {
    "id": "osm_1557355603",
    "name": "Miejski Dom Kultury",
    "category": "library",
    "coordinates": [
      19.2406264,
      50.2932875
    ],
    "address": "Katowice"
  },
  {
    "id": "osm_1557372418",
    "name": "kiosk",
    "category": "shop",
    "coordinates": [
      19.2356566,
      50.2937777
    ],
    "address": "Katowice"
  },
  {
    "id": "osm_1557405545",
    "name": "kiosk",
    "category": "shop",
    "coordinates": [
      19.2452574,
      50.2943115
    ],
    "address": "Katowice"
  },
  {
    "id": "osm_1561890672",
    "name": "Sklep meblowy",
    "category": "shop",
    "coordinates": [
      19.070392,
      50.321592
    ],
    "address": "Katowice"
  },
  {
    "id": "osm_1561895924",
    "name": "PARTNER AGD RTV",
    "category": "shop",
    "coordinates": [
      19.0705439,
      50.321543
    ],
    "address": "Katowice"
  },
  {
    "id": "osm_1562034922",
    "name": "Galeo",
    "category": "restaurant",
    "coordinates": [
      19.0698694,
      50.3192774
    ],
    "address": "Katowice"
  },
  {
    "id": "osm_1569458257",
    "name": "Janda Music Shop",
    "category": "shop",
    "coordinates": [
      19.2136044,
      50.3225517
    ],
    "address": "Katowice"
  },
  {
    "id": "osm_1573747921",
    "name": "Gemini",
    "category": "pharmacy",
    "coordinates": [
      19.1984125,
      50.3213726
    ],
    "address": "Karola Adamieckiego 13, 41-300, Dąbrowa Górnicza"
  },
  {
    "id": "osm_1573771693",
    "name": "Biedronka",
    "category": "shop",
    "coordinates": [
      19.1970048,
      50.3216902
    ],
    "address": "Katowice"
  },
  {
    "id": "osm_1573771696",
    "name": "Apteka \"Merkury\"",
    "category": "pharmacy",
    "coordinates": [
      19.1970048,
      50.3217604
    ],
    "address": "Karola Adamieckiego 11A, 41-300, Dąbrowa Górnicza"
  },
  {
    "id": "osm_1573771711",
    "name": "Sklep AGD i RTV \"Avans\"",
    "category": "shop",
    "coordinates": [
      19.1968155,
      50.3220117
    ],
    "address": "Katowice"
  },
  {
    "id": "osm_1573894188",
    "name": "Tania odzież \"Kubus\"",
    "category": "shop",
    "coordinates": [
      19.1839748,
      50.3255565
    ],
    "address": "Jana III Sobieskiego 9, Dąbrowa Górnicza"
  },
  {
    "id": "osm_1573894190",
    "name": "Żabka",
    "category": "shop",
    "coordinates": [
      19.1927531,
      50.3256346
    ],
    "address": "Księdza Grzegorza Augustynika 7, 41-300, Dąbrowa Górnicza"
  },
  {
    "id": "osm_1581517852",
    "name": "Cafe Chopin",
    "category": "restaurant",
    "coordinates": [
      19.1061607,
      50.3177033
    ],
    "address": "Będzińska 80, Katowice"
  },
  {
    "id": "osm_1581517871",
    "name": "car_repair",
    "category": "shop",
    "coordinates": [
      19.0728596,
      50.3201248
    ],
    "address": "Katowice"
  },
  {
    "id": "osm_1581517882",
    "name": "Cafe Desa",
    "category": "restaurant",
    "coordinates": [
      19.0739295,
      50.3186873
    ],
    "address": "Rynek 26, 41-250, Czeladź"
  },
  {
    "id": "osm_1581517893",
    "name": "Auto-Serwis",
    "category": "shop",
    "coordinates": [
      19.0736428,
      50.3180243
    ],
    "address": "Katowice"
  },
  {
    "id": "osm_1581517915",
    "name": "Tex-Mex El Chapo Burgers",
    "category": "restaurant",
    "coordinates": [
      19.0693087,
      50.3191543
    ],
    "address": "Katowice"
  },
  {
    "id": "osm_1582347343",
    "name": "Stonehendge",
    "category": "restaurant",
    "coordinates": [
      19.1847063,
      50.3254336
    ],
    "address": "Jana III Sobieskiego 7, Dąbrowa Górnicza"
  },
  {
    "id": "osm_1582358483",
    "name": "Cukiernia Marzenie",
    "category": "shop",
    "coordinates": [
      19.1756324,
      50.3196836
    ],
    "address": "Szpitalna 16, 41-300, Dąbrowa Górnicza"
  },
  {
    "id": "osm_1592887303",
    "name": "Żabka",
    "category": "shop",
    "coordinates": [
      18.9731434,
      50.2807394
    ],
    "address": "Katowice"
  },
  {
    "id": "osm_1607601663",
    "name": "Avans",
    "category": "shop",
    "coordinates": [
      19.2001045,
      50.3235375
    ],
    "address": "Królowej Jadwigi 42, Dąbrowa Górnicza"
  },
  {
    "id": "osm_1607601664",
    "name": "Biuro Podróży El-Tour",
    "category": "shop",
    "coordinates": [
      19.1976344,
      50.3224865
    ],
    "address": "Katowice"
  },
  {
    "id": "osm_1607601665",
    "name": "Żabka",
    "category": "shop",
    "coordinates": [
      19.2002824,
      50.323611
    ],
    "address": "Królowej Jadwigi 42, Dąbrowa Górnicza"
  },
  {
    "id": "osm_1607601666",
    "name": "Wielbłąd",
    "category": "shop",
    "coordinates": [
      19.1990974,
      50.323123
    ],
    "address": "Katowice"
  },
  {
    "id": "osm_1607601672",
    "name": "Video World",
    "category": "shop",
    "coordinates": [
      19.1968522,
      50.321977
    ],
    "address": "Katowice"
  },
  {
    "id": "osm_1626774104",
    "name": "Rimini Pizza",
    "category": "restaurant",
    "coordinates": [
      18.9709508,
      50.2299251
    ],
    "address": "Katowice"
  },
  {
    "id": "osm_1626774117",
    "name": "Apteka Książęca",
    "category": "pharmacy",
    "coordinates": [
      18.9708724,
      50.2298586
    ],
    "address": "Katowice"
  },
  {
    "id": "osm_1635275439",
    "name": "kiosk",
    "category": "shop",
    "coordinates": [
      18.9770008,
      50.3384987
    ],
    "address": "Katowice"
  },
  {
    "id": "osm_1636797696",
    "name": "Wersal - Jubiler i Pasmanteria",
    "category": "shop",
    "coordinates": [
      19.1851922,
      50.3254039
    ],
    "address": "Jana III Sobieskiego 3, Dąbrowa Górnicza"
  },
  {
    "id": "osm_1675112787",
    "name": "Sphinx",
    "category": "restaurant",
    "coordinates": [
      19.0229757,
      50.2613991
    ],
    "address": "Katowice"
  },
  {
    "id": "osm_1675112829",
    "name": "Społem",
    "category": "shop",
    "coordinates": [
      19.0230303,
      50.2615135
    ],
    "address": "Katowice"
  },
  {
    "id": "osm_1684629388",
    "name": "Żabka",
    "category": "shop",
    "coordinates": [
      19.0730908,
      50.2239087
    ],
    "address": "Pod Kasztanami 5, Katowice"
  },
  {
    "id": "osm_1700357283",
    "name": "Biesiada smaku",
    "category": "restaurant",
    "coordinates": [
      19.2374633,
      50.2259851
    ],
    "address": "Katowice"
  },
  {
    "id": "osm_1700392827",
    "name": "Żabka",
    "category": "shop",
    "coordinates": [
      19.2479765,
      50.2230537
    ],
    "address": "Szczakowska 2D, 43-600, Jaworzno"
  },
  {
    "id": "osm_1704556025",
    "name": "Państwowa szkoła muzyczna I stopnia (drugi budynek)",
    "category": "school",
    "coordinates": [
      19.2380288,
      50.2243107
    ],
    "address": "Katowice"
  },
  {
    "id": "osm_1704556057",
    "name": "school",
    "category": "school",
    "coordinates": [
      19.2382413,
      50.2247352
    ],
    "address": "Katowice"
  },
  {
    "id": "osm_1704574476",
    "name": "Bratek",
    "category": "restaurant",
    "coordinates": [
      19.2356741,
      50.2253563
    ],
    "address": "Katowice"
  },
  {
    "id": "osm_1705947152",
    "name": "Tele-Com",
    "category": "shop",
    "coordinates": [
      19.1315686,
      50.3252131
    ],
    "address": "Katowice"
  },
  {
    "id": "osm_1705949689",
    "name": "Oczko",
    "category": "shop",
    "coordinates": [
      19.1329924,
      50.3251298
    ],
    "address": "Katowice"
  },
  {
    "id": "osm_1706000056",
    "name": "Dealer Giant-Polska",
    "category": "shop",
    "coordinates": [
      19.1575412,
      50.2383842
    ],
    "address": "Katowice"
  },
  {
    "id": "osm_1706007287",
    "name": "Bikemaniak",
    "category": "shop",
    "coordinates": [
      19.1344179,
      50.274452
    ],
    "address": "Katowice"
  },
  {
    "id": "osm_1706009108",
    "name": "Rowery Przemyslaw Kusa",
    "category": "shop",
    "coordinates": [
      19.0707796,
      50.3185978
    ],
    "address": "Katowice"
  },
  {
    "id": "osm_1706010562",
    "name": "Bike Atelier",
    "category": "shop",
    "coordinates": [
      19.020403,
      50.2631669
    ],
    "address": "Katowice"
  },
  {
    "id": "osm_1718155817",
    "name": "Trans Oil",
    "category": "shop",
    "coordinates": [
      19.0566711,
      50.2652644
    ],
    "address": "Katowice"
  },
  {
    "id": "osm_1757110155",
    "name": "Kawiarnia Pod Wieżą",
    "category": "restaurant",
    "coordinates": [
      18.9656537,
      50.2981615
    ],
    "address": "Katowice"
  },
  {
    "id": "osm_1757110161",
    "name": "Sztygarka",
    "category": "restaurant",
    "coordinates": [
      18.9644717,
      50.2983749
    ],
    "address": "Katowice"
  },
  {
    "id": "osm_1763043115",
    "name": "Stokrotka",
    "category": "shop",
    "coordinates": [
      18.9882046,
      50.2316682
    ],
    "address": "Katowice"
  },
  {
    "id": "osm_1772622034",
    "name": "Karczma pod Lasem",
    "category": "restaurant",
    "coordinates": [
      19.2258808,
      50.3165961
    ],
    "address": "Katowice"
  },
  {
    "id": "osm_1772751666",
    "name": "Mega Smak",
    "category": "restaurant",
    "coordinates": [
      18.9935372,
      50.2301915
    ],
    "address": "Rolna 4, 40-555, Katowice"
  },
  {
    "id": "osm_1772848118",
    "name": "FH \"Kabanosik\"",
    "category": "shop",
    "coordinates": [
      19.2004533,
      50.3236816
    ],
    "address": "Królowej Jadwigi 44, Dąbrowa Górnicza"
  },
  {
    "id": "osm_1772848120",
    "name": "Lala fashion",
    "category": "shop",
    "coordinates": [
      19.2006843,
      50.323777
    ],
    "address": "Królowej Jadwigi 44, Dąbrowa Górnicza"
  },
  {
    "id": "osm_1772848121",
    "name": "Odzież Męska i Młodzieżowa",
    "category": "shop",
    "coordinates": [
      19.2003573,
      50.3236419
    ],
    "address": "Królowej Jadwigi 44, Dąbrowa Górnicza"
  },
  {
    "id": "osm_1772848124",
    "name": "hairdresser",
    "category": "shop",
    "coordinates": [
      19.2091626,
      50.3237797
    ],
    "address": "Katowice"
  },
  {
    "id": "osm_1775981898",
    "name": "Saluto",
    "category": "restaurant",
    "coordinates": [
      19.0273167,
      50.2574936
    ],
    "address": "Katowice"
  },
  {
    "id": "osm_1775994467",
    "name": "Piekarnia Mariacka",
    "category": "shop",
    "coordinates": [
      19.0258799,
      50.257363
    ],
    "address": "Katowice"
  },
  {
    "id": "osm_1775994476",
    "name": "Żabka",
    "category": "shop",
    "coordinates": [
      19.0246172,
      50.2574276
    ],
    "address": "Mariacka 2, 40-014, Katowice"
  },
  {
    "id": "osm_1778010143",
    "name": "Domowe Obiady Adaś",
    "category": "restaurant",
    "coordinates": [
      19.2000184,
      50.3242761
    ],
    "address": "Królowej Jadwigi 23, Dąbrowa Górnicza"
  },
  {
    "id": "osm_1778010144",
    "name": "Kwiaty",
    "category": "shop",
    "coordinates": [
      19.2005292,
      50.3243017
    ],
    "address": "Katowice"
  },
  {
    "id": "osm_1778432017",
    "name": "Dbam o Zdrowie",
    "category": "pharmacy",
    "coordinates": [
      18.9665966,
      50.2741919
    ],
    "address": "Katowice"
  },
  {
    "id": "osm_1780645127",
    "name": "Sklep Zoologiczny Thompson",
    "category": "shop",
    "coordinates": [
      19.2021352,
      50.3227364
    ],
    "address": "Katowice"
  },
  {
    "id": "osm_1780645129",
    "name": "Sklep meblowy A-Tom",
    "category": "shop",
    "coordinates": [
      19.2010566,
      50.3232548
    ],
    "address": "Katowice"
  },
  {
    "id": "osm_1780645130",
    "name": "Tania Odzież",
    "category": "shop",
    "coordinates": [
      19.2020161,
      50.3228737
    ],
    "address": "Katowice"
  },
  {
    "id": "osm_1780645131",
    "name": "Łysa Góra",
    "category": "shop",
    "coordinates": [
      19.190769,
      50.3257439
    ],
    "address": "Kardynała Stefana Wyszyńskiego 3, 41-300, Dąbrowa Górnicza"
  },
  {
    "id": "osm_1781695900",
    "name": "Metal-Szkło",
    "category": "shop",
    "coordinates": [
      19.2052025,
      50.3210085
    ],
    "address": "Katowice"
  },
  {
    "id": "osm_1781695946",
    "name": "Odzież używana",
    "category": "shop",
    "coordinates": [
      19.2048036,
      50.3210169
    ],
    "address": "Katowice"
  },
  {
    "id": "osm_1788973534",
    "name": "Mieszko",
    "category": "restaurant",
    "coordinates": [
      18.9677012,
      50.2859871
    ],
    "address": "Katowice"
  },
  {
    "id": "osm_1789047067",
    "name": "Apteka Dla Zdrowia",
    "category": "pharmacy",
    "coordinates": [
      18.9667347,
      50.281771
    ],
    "address": "Katowice"
  },
  {
    "id": "osm_1789184111",
    "name": "Stokrotka",
    "category": "shop",
    "coordinates": [
      18.9762102,
      50.2777139
    ],
    "address": "Zawiszy Czarnego 16, 40-872, Katowice"
  },
  {
    "id": "osm_1791506686",
    "name": "Kaczmarek electric",
    "category": "shop",
    "coordinates": [
      18.9821484,
      50.2360576
    ],
    "address": "Katowice"
  },
  {
    "id": "osm_1791544001",
    "name": "Miejska Biblioteka Publiczna Filia 32",
    "category": "library",
    "coordinates": [
      18.9800805,
      50.2307752
    ],
    "address": "Katowice"
  },
  {
    "id": "osm_1791544006",
    "name": "Ziarenko",
    "category": "shop",
    "coordinates": [
      18.9833128,
      50.2316399
    ],
    "address": "Katowice"
  },
  {
    "id": "osm_1793285553",
    "name": "\"Regis\" Pracownia Złotnicza",
    "category": "shop",
    "coordinates": [
      19.1991907,
      50.3231599
    ],
    "address": "Katowice"
  },
  {
    "id": "osm_1793285564",
    "name": "Butik Femee",
    "category": "shop",
    "coordinates": [
      19.1994792,
      50.3232741
    ],
    "address": "Katowice"
  },
  {
    "id": "osm_1793285569",
    "name": "Ciuchomania A&J",
    "category": "shop",
    "coordinates": [
      19.1965794,
      50.321864
    ],
    "address": "Katowice"
  },
  {
    "id": "osm_1793285576",
    "name": "Grupa Factor - okna MS",
    "category": "shop",
    "coordinates": [
      19.1973339,
      50.3223662
    ],
    "address": "Katowice"
  },
  {
    "id": "osm_1793285598",
    "name": "Kwiaciarnia CWN",
    "category": "shop",
    "coordinates": [
      19.1992802,
      50.3231954
    ],
    "address": "Katowice"
  },
  {
    "id": "osm_1793285605",
    "name": "Mięso i wędliny I.B.G.",
    "category": "shop",
    "coordinates": [
      19.1961097,
      50.32167
    ],
    "address": "Katowice"
  },
  {
    "id": "osm_1793285747",
    "name": "Origami",
    "category": "restaurant",
    "coordinates": [
      19.2016114,
      50.3236656
    ],
    "address": "Wojska Polskiego 31, Dąbrowa Górnicza"
  },
  {
    "id": "osm_1793285755",
    "name": "Outlet",
    "category": "shop",
    "coordinates": [
      19.201796,
      50.3240399
    ],
    "address": "Katowice"
  },
  {
    "id": "osm_1793285759",
    "name": "Piapierosy",
    "category": "shop",
    "coordinates": [
      19.1961882,
      50.3216997
    ],
    "address": "Katowice"
  },
  {
    "id": "osm_1793285762",
    "name": "Pieczywo",
    "category": "shop",
    "coordinates": [
      19.1960521,
      50.3216468
    ],
    "address": "Katowice"
  },
  {
    "id": "osm_1793285773",
    "name": "Sala Balowa",
    "category": "restaurant",
    "coordinates": [
      19.2014592,
      50.3235933
    ],
    "address": "Wojska Polskiego 31, Dąbrowa Górnicza"
  },
  {
    "id": "osm_1793285794",
    "name": "Studio Kreacji Wizerunku",
    "category": "shop",
    "coordinates": [
      19.1962667,
      50.3217293
    ],
    "address": "Katowice"
  },
  {
    "id": "osm_1793285811",
    "name": "Usługi Pogrzebowe",
    "category": "shop",
    "coordinates": [
      19.2014344,
      50.3239652
    ],
    "address": "Katowice"
  },
  {
    "id": "osm_1793285921",
    "name": "Świat alkoholi",
    "category": "shop",
    "coordinates": [
      19.2016795,
      50.3239956
    ],
    "address": "Katowice"
  },
  {
    "id": "osm_1793655690",
    "name": "Auto Części",
    "category": "shop",
    "coordinates": [
      18.9752036,
      50.3686437
    ],
    "address": "Katowice"
  },
  {
    "id": "osm_1793655691",
    "name": "Auto Części",
    "category": "shop",
    "coordinates": [
      18.9746606,
      50.3688264
    ],
    "address": "Katowice"
  },
  {
    "id": "osm_1793655692",
    "name": "Cyfra+",
    "category": "shop",
    "coordinates": [
      18.9718866,
      50.3697107
    ],
    "address": "Katowice"
  },
  {
    "id": "osm_1793655694",
    "name": "Danusia",
    "category": "shop",
    "coordinates": [
      18.9915523,
      50.3660074
    ],
    "address": "Katowice"
  },
  {
    "id": "osm_1793655696",
    "name": "Gigant II",
    "category": "shop",
    "coordinates": [
      18.9802211,
      50.3673769
    ],
    "address": "Katowice"
  },
  {
    "id": "osm_1793655697",
    "name": "Ham Szyneczka",
    "category": "shop",
    "coordinates": [
      18.9900993,
      50.3662148
    ],
    "address": "Katowice"
  },
  {
    "id": "osm_1793655698",
    "name": "Tasty king kebab",
    "category": "restaurant",
    "coordinates": [
      18.9807443,
      50.3669857
    ],
    "address": "Oświęcimska 88, 41-949, Piekary Śląskie"
  },
  {
    "id": "osm_1793655699",
    "name": "Jankiel",
    "category": "shop",
    "coordinates": [
      18.9892037,
      50.3664077
    ],
    "address": "Katowice"
  },
  {
    "id": "osm_1793655700",
    "name": "Jubiler",
    "category": "shop",
    "coordinates": [
      18.9810405,
      50.3669266
    ],
    "address": "Katowice"
  },
  {
    "id": "osm_1793655706",
    "name": "Optyka Coiner",
    "category": "shop",
    "coordinates": [
      18.9804649,
      50.3673257
    ],
    "address": "Osiedle Andaluzja 9, 41-949, Piekary Śląskie"
  },
  {
    "id": "osm_1793655708",
    "name": "Ziarenko",
    "category": "shop",
    "coordinates": [
      18.9766045,
      50.3684701
    ],
    "address": "Katowice"
  },
  {
    "id": "osm_1793655709",
    "name": "Piekarnia i Cukiernia \"Stach\"",
    "category": "shop",
    "coordinates": [
      18.9804783,
      50.3670565
    ],
    "address": "Oświęcimska 86, 41-940, Piekary Śląskie"
  },
  {
    "id": "osm_1793655710",
    "name": "Pierkania Cukiernia E.J. Pietryga",
    "category": "shop",
    "coordinates": [
      18.9920161,
      50.3659708
    ],
    "address": "Katowice"
  },
  {
    "id": "osm_1793655711",
    "name": "Salon fryzjerski Daria",
    "category": "shop",
    "coordinates": [
      18.9811382,
      50.3669055
    ],
    "address": "Katowice"
  },
  {
    "id": "osm_1793655712",
    "name": "Salon fryzjerski",
    "category": "shop",
    "coordinates": [
      18.9722606,
      50.3696061
    ],
    "address": "Katowice"
  },
  {
    "id": "osm_1793655714",
    "name": "Srebro",
    "category": "shop",
    "coordinates": [
      18.9812622,
      50.3668786
    ],
    "address": "Katowice"
  },
  {
    "id": "osm_1793655715",
    "name": "Upominek",
    "category": "shop",
    "coordinates": [
      18.9812322,
      50.3668851
    ],
    "address": "Katowice"
  },
  {
    "id": "osm_1793655721",
    "name": "abc",
    "category": "shop",
    "coordinates": [
      18.9763066,
      50.3683435
    ],
    "address": "Katowice"
  },
  {
    "id": "osm_1793656311",
    "name": "Żabka",
    "category": "shop",
    "coordinates": [
      18.979739,
      50.3672067
    ],
    "address": "Katowice"
  },
  {
    "id": "osm_1794578760",
    "name": "Saj-gon",
    "category": "restaurant",
    "coordinates": [
      19.1997428,
      50.3239772
    ],
    "address": "Królowej Jadwigi 23, Dąbrowa Górnicza"
  },
  {
    "id": "osm_1794578762",
    "name": "Zoologiczny",
    "category": "shop",
    "coordinates": [
      19.2000832,
      50.3242297
    ],
    "address": "Katowice"
  },
  {
    "id": "osm_1794578763",
    "name": "Sleeping Expert",
    "category": "shop",
    "coordinates": [
      19.1997895,
      50.3239968
    ],
    "address": "Królowej Jadwigi 23, Dąbrowa Górnicza"
  },
  {
    "id": "osm_1794578766",
    "name": "Meble z drewna",
    "category": "shop",
    "coordinates": [
      19.1972691,
      50.3230351
    ],
    "address": "Katowice"
  },
  {
    "id": "osm_1794578768",
    "name": "Naprawa Laptopów",
    "category": "shop",
    "coordinates": [
      19.2071431,
      50.3254922
    ],
    "address": "Włodzimierza Majakowskiego 3, Dąbrowa Górnicza"
  },
  {
    "id": "osm_1794578770",
    "name": "OFI",
    "category": "shop",
    "coordinates": [
      19.2079353,
      50.3251935
    ],
    "address": "Włodzimierza Majakowskiego 5, 41-300, Dąbrowa Górnicza"
  },
  {
    "id": "osm_1794578772",
    "name": "Piekarnia",
    "category": "shop",
    "coordinates": [
      19.196162,
      50.3226616
    ],
    "address": "Katowice"
  },
  {
    "id": "osm_1794578775",
    "name": "Salon mody ślubnej",
    "category": "shop",
    "coordinates": [
      19.195222,
      50.3221034
    ],
    "address": "Hugona Kołłątaja 24, Dąbrowa Górnicza"
  },
  {
    "id": "osm_1794578777",
    "name": "Sklep Motoryzacyny",
    "category": "shop",
    "coordinates": [
      19.2079855,
      50.3251636
    ],
    "address": "Katowice"
  },
  {
    "id": "osm_1794578780",
    "name": "Studio Urody Anna",
    "category": "shop",
    "coordinates": [
      19.1999171,
      50.3240503
    ],
    "address": "Królowej Jadwigi 23, Dąbrowa Górnicza"
  },
  {
    "id": "osm_1794578781",
    "name": "Szkoła Języków Obcych",
    "category": "school",
    "coordinates": [
      19.195278,
      50.3222965
    ],
    "address": "Hugona Kołłątaja 24, Dąbrowa Górnicza"
  },
  {
    "id": "osm_1794578782",
    "name": "Trendy",
    "category": "shop",
    "coordinates": [
      19.1994448,
      50.3238522
    ],
    "address": "Królowej Jadwigi 23, Dąbrowa Górnicza"
  },
  {
    "id": "osm_1794578784",
    "name": "kiosk",
    "category": "shop",
    "coordinates": [
      19.1962944,
      50.3231591
    ],
    "address": "Katowice"
  },
  {
    "id": "osm_1794600208",
    "name": "Rabat",
    "category": "shop",
    "coordinates": [
      19.2137997,
      50.3228862
    ],
    "address": "Włodzimierza Majakowskiego 31, 41-300, Dąbrowa Górnicza"
  },
  {
    "id": "osm_1796713607",
    "name": "Dr. Max",
    "category": "pharmacy",
    "coordinates": [
      18.9825988,
      50.23166
    ],
    "address": "Katowice"
  },
  {
    "id": "osm_1796713614",
    "name": "Apteka Prima",
    "category": "pharmacy",
    "coordinates": [
      18.9862421,
      50.2331361
    ],
    "address": "Katowice"
  },
  {
    "id": "osm_1797068519",
    "name": "Chemia",
    "category": "shop",
    "coordinates": [
      19.1961918,
      50.3215335
    ],
    "address": "Katowice"
  },
  {
    "id": "osm_1797068523",
    "name": "Kwiaty",
    "category": "shop",
    "coordinates": [
      19.1960857,
      50.3215129
    ],
    "address": "Katowice"
  },
  {
    "id": "osm_1799451589",
    "name": "CCC",
    "category": "shop",
    "coordinates": [
      19.1510302,
      50.2908752
    ],
    "address": "Katowice"
  },
  {
    "id": "osm_1799451591",
    "name": "Carrefour",
    "category": "shop",
    "coordinates": [
      19.1511687,
      50.2895177
    ],
    "address": "Katowice"
  },
  {
    "id": "osm_1799451620",
    "name": "Euro Rtv Agd",
    "category": "shop",
    "coordinates": [
      19.1507576,
      50.2902809
    ],
    "address": "Katowice"
  },
  {
    "id": "osm_1799451628",
    "name": "Jysk",
    "category": "shop",
    "coordinates": [
      19.1510575,
      50.2909346
    ],
    "address": "Katowice"
  },
  {
    "id": "osm_1799451633",
    "name": "Kari",
    "category": "shop",
    "coordinates": [
      19.1510847,
      50.290994
    ],
    "address": "Katowice"
  },
  {
    "id": "osm_1799451636",
    "name": "Smyk",
    "category": "shop",
    "coordinates": [
      19.1514326,
      50.2908032
    ],
    "address": "Katowice"
  },
  {
    "id": "osm_1799451638",
    "name": "Zwierzak",
    "category": "shop",
    "coordinates": [
      19.151003,
      50.2908157
    ],
    "address": "Katowice"
  },
  {
    "id": "osm_1799472483",
    "name": "Kopernik Toruń",
    "category": "shop",
    "coordinates": [
      19.1507849,
      50.2903404
    ],
    "address": "Katowice"
  },
  {
    "id": "osm_1799472484",
    "name": "Bartek",
    "category": "shop",
    "coordinates": [
      19.1509484,
      50.2906969
    ],
    "address": "Katowice"
  },
  {
    "id": "osm_1799472485",
    "name": "G-Point",
    "category": "shop",
    "coordinates": [
      19.1508122,
      50.2903998
    ],
    "address": "Katowice"
  },
  {
    "id": "osm_1799472486",
    "name": "Genesy",
    "category": "shop",
    "coordinates": [
      19.1508394,
      50.2904592
    ],
    "address": "Katowice"
  },
  {
    "id": "osm_1799472487",
    "name": "Hektor",
    "category": "shop",
    "coordinates": [
      19.1508667,
      50.2905186
    ],
    "address": "Katowice"
  },
  {
    "id": "osm_1799472488",
    "name": "Orange",
    "category": "shop",
    "coordinates": [
      19.1509757,
      50.2907563
    ],
    "address": "Katowice"
  },
  {
    "id": "osm_1799472489",
    "name": "Plus",
    "category": "shop",
    "coordinates": [
      19.1509212,
      50.2906375
    ],
    "address": "Katowice"
  },
  {
    "id": "osm_1799472490",
    "name": "T-Mobile",
    "category": "shop",
    "coordinates": [
      19.1508939,
      50.2905781
    ],
    "address": "Katowice"
  },
  {
    "id": "osm_1799495968",
    "name": "Apteka Melisa",
    "category": "pharmacy",
    "coordinates": [
      19.1532311,
      50.290656
    ],
    "address": "Katowice"
  },
  {
    "id": "osm_1799495987",
    "name": "BoDa",
    "category": "shop",
    "coordinates": [
      19.1511454,
      50.290569
    ],
    "address": "Katowice"
  },
  {
    "id": "osm_1799495988",
    "name": "Bytom",
    "category": "shop",
    "coordinates": [
      19.1525001,
      50.2905869
    ],
    "address": "Katowice"
  },
  {
    "id": "osm_1799495989",
    "name": "Cest Bon",
    "category": "shop",
    "coordinates": [
      19.1510996,
      50.2904937
    ],
    "address": "Katowice"
  },
  {
    "id": "osm_1799495990",
    "name": "Cropp",
    "category": "shop",
    "coordinates": [
      19.15162,
      50.2905182
    ],
    "address": "Katowice"
  },
  {
    "id": "osm_1799495993",
    "name": "Deichmann",
    "category": "shop",
    "coordinates": [
      19.152603,
      50.2899647
    ],
    "address": "Katowice"
  },
  {
    "id": "osm_1799496006",
    "name": "fast_food",
    "category": "restaurant",
    "coordinates": [
      19.1535199,
      50.2904025
    ],
    "address": "Katowice"
  },
  {
    "id": "osm_1799496010",
    "name": "Esotiq",
    "category": "shop",
    "coordinates": [
      19.1510538,
      50.2904184
    ],
    "address": "Katowice"
  },
  {
    "id": "osm_1799496014",
    "name": "Fever",
    "category": "shop",
    "coordinates": [
      19.1511912,
      50.2906443
    ],
    "address": "Katowice"
  },
  {
    "id": "osm_1799496015",
    "name": "Gatta",
    "category": "shop",
    "coordinates": [
      19.1526647,
      50.2900155
    ],
    "address": "Katowice"
  },
  {
    "id": "osm_1799496016",
    "name": "Glitter",
    "category": "shop",
    "coordinates": [
      19.1519622,
      50.2905968
    ],
    "address": "Katowice"
  },
  {
    "id": "osm_1799496017",
    "name": "H&M",
    "category": "shop",
    "coordinates": [
      19.1520697,
      50.2905948
    ],
    "address": "Katowice"
  },
  {
    "id": "osm_1799496019",
    "name": "Ha Long",
    "category": "restaurant",
    "coordinates": [
      19.1534173,
      50.2905853
    ],
    "address": "Katowice"
  },
  {
    "id": "osm_1799496032",
    "name": "Hottu",
    "category": "shop",
    "coordinates": [
      19.1527153,
      50.2905829
    ],
    "address": "Katowice"
  },
  {
    "id": "osm_1799496035",
    "name": "Levi's",
    "category": "shop",
    "coordinates": [
      19.1527264,
      50.2900662
    ],
    "address": "Katowice"
  },
  {
    "id": "osm_1799496040",
    "name": "Lunch Station",
    "category": "restaurant",
    "coordinates": [
      19.153528,
      50.290524
    ],
    "address": "Katowice"
  },
  {
    "id": "osm_1799496043",
    "name": "Mr Hamburger",
    "category": "restaurant",
    "coordinates": [
      19.1532095,
      50.2905887
    ],
    "address": "Katowice"
  },
  {
    "id": "osm_1799496044",
    "name": "New York Pizza",
    "category": "restaurant",
    "coordinates": [
      19.1536386,
      50.2904628
    ],
    "address": "Katowice"
  },
  {
    "id": "osm_1799496045",
    "name": "New Yorker",
    "category": "shop",
    "coordinates": [
      19.1517424,
      50.2905532
    ],
    "address": "Katowice"
  },
  {
    "id": "osm_1799496058",
    "name": "orsay",
    "category": "shop",
    "coordinates": [
      19.1528228,
      50.2905809
    ],
    "address": "Katowice"
  },
  {
    "id": "osm_1799496062",
    "name": "Pepo",
    "category": "shop",
    "coordinates": [
      19.1512528,
      50.2904132
    ],
    "address": "Katowice"
  },
  {
    "id": "osm_1799496065",
    "name": "Perfect Man",
    "category": "shop",
    "coordinates": [
      19.1523925,
      50.2905888
    ],
    "address": "Katowice"
  },
  {
    "id": "osm_1799496069",
    "name": "Perfumeria Aha!",
    "category": "shop",
    "coordinates": [
      19.151008,
      50.2903432
    ],
    "address": "Katowice"
  },
  {
    "id": "osm_1799496070",
    "name": "Perfumeria Sephora",
    "category": "shop",
    "coordinates": [
      19.1531588,
      50.2901523
    ],
    "address": "Katowice"
  },
  {
    "id": "osm_1799496071",
    "name": "Play",
    "category": "shop",
    "coordinates": [
      19.1522849,
      50.2905908
    ],
    "address": "Katowice"
  },
  {
    "id": "osm_1799496083",
    "name": "Quazi",
    "category": "shop",
    "coordinates": [
      19.1514976,
      50.2904832
    ],
    "address": "Katowice"
  },
  {
    "id": "osm_1799496087",
    "name": "Quisque",
    "category": "shop",
    "coordinates": [
      19.1521773,
      50.2905928
    ],
    "address": "Katowice"
  },
  {
    "id": "osm_1799496095",
    "name": "Time Trend",
    "category": "shop",
    "coordinates": [
      19.1511304,
      50.2903782
    ],
    "address": "Katowice"
  },
  {
    "id": "osm_1799496097",
    "name": "Vero Moda",
    "category": "shop",
    "coordinates": [
      19.1518648,
      50.2905882
    ],
    "address": "Katowice"
  },
  {
    "id": "osm_1799496098",
    "name": "Vito Ver Kelis",
    "category": "shop",
    "coordinates": [
      19.1513752,
      50.2904482
    ],
    "address": "Katowice"
  },
  {
    "id": "osm_1799931568",
    "name": "Aligator",
    "category": "shop",
    "coordinates": [
      19.1523271,
      50.2903999
    ],
    "address": "Katowice"
  },
  {
    "id": "osm_1799931572",
    "name": "Apart",
    "category": "shop",
    "coordinates": [
      19.1522761,
      50.2900196
    ],
    "address": "Katowice"
  },
  {
    "id": "osm_1799931575",
    "name": "Badura",
    "category": "shop",
    "coordinates": [
      19.1521863,
      50.2900339
    ],
    "address": "Katowice"
  },
  {
    "id": "osm_1799931576",
    "name": "Big Star",
    "category": "shop",
    "coordinates": [
      19.1529316,
      50.290372
    ],
    "address": "Katowice"
  },
  {
    "id": "osm_1799931577",
    "name": "Carry",
    "category": "shop",
    "coordinates": [
      19.1515029,
      50.2903139
    ],
    "address": "Katowice"
  },
  {
    "id": "osm_1799931578",
    "name": "Centro",
    "category": "shop",
    "coordinates": [
      19.1516402,
      50.2903283
    ],
    "address": "Katowice"
  },
  {
    "id": "osm_1799931589",
    "name": "Drogeria Natura",
    "category": "shop",
    "coordinates": [
      19.152557,
      50.2901706
    ],
    "address": "Katowice"
  },
  {
    "id": "osm_1799931593",
    "name": "Empik",
    "category": "shop",
    "coordinates": [
      19.151917,
      50.2900769
    ],
    "address": "Katowice"
  },
  {
    "id": "osm_1799931601",
    "name": "Funk'n'Soul",
    "category": "shop",
    "coordinates": [
      19.1517776,
      50.2903426
    ],
    "address": "Katowice"
  },
  {
    "id": "osm_1799931603",
    "name": "Funky Fish",
    "category": "shop",
    "coordinates": [
      19.1527393,
      50.2904429
    ],
    "address": "Katowice"
  },
  {
    "id": "osm_1799931604",
    "name": "Jass Collection",
    "category": "shop",
    "coordinates": [
      19.1526507,
      50.290221
    ],
    "address": "Katowice"
  },
  {
    "id": "osm_1799931605",
    "name": "Kolporter",
    "category": "shop",
    "coordinates": [
      19.1513785,
      50.2901628
    ],
    "address": "Katowice"
  },
  {
    "id": "osm_1799931612",
    "name": "Lavard",
    "category": "shop",
    "coordinates": [
      19.1526019,
      50.2904286
    ],
    "address": "Katowice"
  },
  {
    "id": "osm_1799931613",
    "name": "Lisieckie Smaki",
    "category": "shop",
    "coordinates": [
      19.1520068,
      50.2900626
    ],
    "address": "Katowice"
  },
  {
    "id": "osm_1799931614",
    "name": "Owocowa Kraina / Piekarnia Król",
    "category": "shop",
    "coordinates": [
      19.1518273,
      50.2900912
    ],
    "address": "Katowice"
  },
  {
    "id": "osm_1799931615",
    "name": "Papierośnica",
    "category": "shop",
    "coordinates": [
      19.1512281,
      50.2902853
    ],
    "address": "Katowice"
  },
  {
    "id": "osm_1799931616",
    "name": "Pelikan",
    "category": "shop",
    "coordinates": [
      19.1527443,
      50.2902713
    ],
    "address": "Katowice"
  },
  {
    "id": "osm_1799931617",
    "name": "Reserved",
    "category": "shop",
    "coordinates": [
      19.151915,
      50.2903569
    ],
    "address": "Katowice"
  },
  {
    "id": "osm_1799931618",
    "name": "Ryłko",
    "category": "shop",
    "coordinates": [
      19.1521897,
      50.2903856
    ],
    "address": "Katowice"
  },
  {
    "id": "osm_1799931619",
    "name": "Sandra",
    "category": "shop",
    "coordinates": [
      19.1520966,
      50.2900482
    ],
    "address": "Katowice"
  },
  {
    "id": "osm_1799931620",
    "name": "Studio Fryzjerskie",
    "category": "shop",
    "coordinates": [
      19.151558,
      50.2901342
    ],
    "address": "Katowice"
  },
  {
    "id": "osm_1799931621",
    "name": "Sun Club",
    "category": "shop",
    "coordinates": [
      19.1512888,
      50.2901771
    ],
    "address": "Katowice"
  },
  {
    "id": "osm_1799931622",
    "name": "SuperAuto",
    "category": "shop",
    "coordinates": [
      19.1523697,
      50.2900699
    ],
    "address": "Katowice"
  },
  {
    "id": "osm_1799931623",
    "name": "Swiss",
    "category": "shop",
    "coordinates": [
      19.1528766,
      50.2904572
    ],
    "address": "Katowice"
  },
  {
    "id": "osm_1799931624",
    "name": "Taranko",
    "category": "shop",
    "coordinates": [
      19.1524645,
      50.2904142
    ],
    "address": "Katowice"
  },
  {
    "id": "osm_1799931625",
    "name": "Top Secret",
    "category": "shop",
    "coordinates": [
      19.1520524,
      50.2903713
    ],
    "address": "Katowice"
  },
  {
    "id": "osm_1799931626",
    "name": "Vision Express",
    "category": "shop",
    "coordinates": [
      19.1517375,
      50.2901055
    ],
    "address": "Katowice"
  },
  {
    "id": "osm_1799931627",
    "name": "Wojas",
    "category": "shop",
    "coordinates": [
      19.1524634,
      50.2901203
    ],
    "address": "Katowice"
  },
  {
    "id": "osm_1799931628",
    "name": "Yves Roche",
    "category": "shop",
    "coordinates": [
      19.152838,
      50.2903217
    ],
    "address": "Katowice"
  },
  {
    "id": "osm_1799931629",
    "name": "Świat Spinek",
    "category": "shop",
    "coordinates": [
      19.153014,
      50.2904716
    ],
    "address": "Katowice"
  },
  {
    "id": "osm_1799931630",
    "name": "5.10.15",
    "category": "shop",
    "coordinates": [
      19.1513655,
      50.2902996
    ],
    "address": "Katowice"
  },
  {
    "id": "osm_1799931631",
    "name": "5àsec",
    "category": "shop",
    "coordinates": [
      19.1514683,
      50.2901485
    ],
    "address": "Katowice"
  },
  {
    "id": "osm_1801851951",
    "name": "Nugat",
    "category": "shop",
    "coordinates": [
      19.0271945,
      50.2548565
    ],
    "address": "Katowice"
  },
  {
    "id": "osm_1801851952",
    "name": "Grafo Pres",
    "category": "shop",
    "coordinates": [
      19.0272452,
      50.254986
    ],
    "address": "Katowice"
  },
  {
    "id": "osm_1801851953",
    "name": "Żabka",
    "category": "shop",
    "coordinates": [
      19.0263743,
      50.2515603
    ],
    "address": "Katowice"
  },
  {
    "id": "osm_1801871563",
    "name": "Center-Alu",
    "category": "shop",
    "coordinates": [
      19.2166173,
      50.3164313
    ],
    "address": "Jana Ziemby 6, Dąbrowa Górnicza"
  },
  {
    "id": "osm_1803035283",
    "name": "Komis Cichy Automobile",
    "category": "shop",
    "coordinates": [
      19.179646,
      50.3071573
    ],
    "address": "Jana Długosza 65, 41-219, Sosnowiec"
  },
  {
    "id": "osm_1803035286",
    "name": "Serwis opon",
    "category": "shop",
    "coordinates": [
      19.1790462,
      50.3072219
    ],
    "address": "Katowice"
  },
  {
    "id": "osm_1803088256",
    "name": "Carrefour",
    "category": "shop",
    "coordinates": [
      19.2296437,
      50.2252713
    ],
    "address": "Katowice"
  },
  {
    "id": "osm_1804016898",
    "name": "Artykuły Motoryzacyjne",
    "category": "shop",
    "coordinates": [
      19.2082021,
      50.3172653
    ],
    "address": "Katowice"
  },
  {
    "id": "osm_1804016903",
    "name": "Serwis Opon",
    "category": "shop",
    "coordinates": [
      19.2098267,
      50.3172066
    ],
    "address": "Katowice"
  },
  {
    "id": "osm_1805179626",
    "name": "Home Concept",
    "category": "shop",
    "coordinates": [
      19.0727231,
      50.2764994
    ],
    "address": "Aleja Walentego Roździeńskiego 191, Katowice"
  },
  {
    "id": "osm_1805288884",
    "name": "Sztucer",
    "category": "shop",
    "coordinates": [
      19.2149222,
      50.3224856
    ],
    "address": "Katowice"
  },
  {
    "id": "osm_1814020062",
    "name": "Cukiernia",
    "category": "shop",
    "coordinates": [
      19.2023059,
      50.3239245
    ],
    "address": "Katowice"
  },
  {
    "id": "osm_1816642407",
    "name": "Club99",
    "category": "restaurant",
    "coordinates": [
      19.0064869,
      50.2629027
    ],
    "address": "Gliwicka 51, 40-014, Katowice"
  },
  {
    "id": "osm_1817056025",
    "name": "Kofeina",
    "category": "restaurant",
    "coordinates": [
      19.0186367,
      50.2596804
    ],
    "address": "Katowice"
  },
  {
    "id": "osm_1817056026",
    "name": "Kebab King",
    "category": "restaurant",
    "coordinates": [
      19.0184005,
      50.259468
    ],
    "address": "Katowice"
  },
  {
    "id": "osm_1817056034",
    "name": "New Yorker",
    "category": "shop",
    "coordinates": [
      19.0202788,
      50.2593917
    ],
    "address": "Katowice"
  },
  {
    "id": "osm_1817056035",
    "name": "Sheikh",
    "category": "restaurant",
    "coordinates": [
      19.0201895,
      50.2596054
    ],
    "address": "Katowice"
  },
  {
    "id": "osm_1817056036",
    "name": "fielmann",
    "category": "shop",
    "coordinates": [
      19.0187049,
      50.2594578
    ],
    "address": "Katowice"
  },
  {
    "id": "osm_1817056037",
    "name": "Galeria Amadeus",
    "category": "shop",
    "coordinates": [
      19.0193874,
      50.2594327
    ],
    "address": "Katowice"
  },
  {
    "id": "osm_1817056039",
    "name": "Rossmann",
    "category": "shop",
    "coordinates": [
      19.0207659,
      50.2593668
    ],
    "address": "Katowice"
  },
  {
    "id": "osm_1817058973",
    "name": "Dbam o Zdrowie",
    "category": "pharmacy",
    "coordinates": [
      19.0195907,
      50.261213
    ],
    "address": "Katowice"
  },
  {
    "id": "osm_1817058975",
    "name": "Piekarek",
    "category": "shop",
    "coordinates": [
      19.0195758,
      50.2607996
    ],
    "address": "Katowice"
  },
  {
    "id": "osm_1817058978",
    "name": "Czaplomania",
    "category": "restaurant",
    "coordinates": [
      19.0198406,
      50.2607704
    ],
    "address": "Katowice"
  },
  {
    "id": "osm_1817571747",
    "name": "Biblioteka Publiczna Miejska. Filia nr 11",
    "category": "library",
    "coordinates": [
      19.1291282,
      50.2373978
    ],
    "address": "Katowice"
  },
  {
    "id": "osm_1817571748",
    "name": "Nie-Bo",
    "category": "restaurant",
    "coordinates": [
      19.1292205,
      50.2373241
    ],
    "address": "Mikołowska 40, 41-400, Mysłowice"
  },
  {
    "id": "osm_1821604664",
    "name": "OBI",
    "category": "shop",
    "coordinates": [
      19.1039075,
      50.3209915
    ],
    "address": "Będzińska 80, Katowice"
  },
  {
    "id": "osm_1821604665",
    "name": "McDonald's",
    "category": "restaurant",
    "coordinates": [
      19.1049741,
      50.3193219
    ],
    "address": "Będzińska 80, Katowice"
  },
  {
    "id": "osm_1821604666",
    "name": "Martes Sport",
    "category": "shop",
    "coordinates": [
      19.1056232,
      50.3180066
    ],
    "address": "Będzińska 80, Katowice"
  },
  {
    "id": "osm_1821604667",
    "name": "Jadłostrada",
    "category": "restaurant",
    "coordinates": [
      19.1050932,
      50.3201832
    ],
    "address": "Będzińska 80, Katowice"
  },
  {
    "id": "osm_1821604668",
    "name": "MediaMarkt",
    "category": "shop",
    "coordinates": [
      19.1046591,
      50.3184158
    ],
    "address": "Będzińska 80, Czeladź"
  },
  {
    "id": "osm_1821604669",
    "name": "bi1",
    "category": "shop",
    "coordinates": [
      19.104305,
      50.3191831
    ],
    "address": "Będzińska 80, 41-250, Czeladź"
  },
  {
    "id": "osm_1821604670",
    "name": "Sułtan Kebab",
    "category": "restaurant",
    "coordinates": [
      19.1054384,
      50.3183223
    ],
    "address": "Będzińska 80, Katowice"
  },
  {
    "id": "osm_1821604671",
    "name": "Sphinx",
    "category": "restaurant",
    "coordinates": [
      19.1050701,
      50.3190838
    ],
    "address": "Będzińska 80, Katowice"
  },
  {
    "id": "osm_1824359545",
    "name": "Żabka",
    "category": "shop",
    "coordinates": [
      19.2145549,
      50.3202629
    ],
    "address": "Katowice"
  },
  {
    "id": "osm_1825141944",
    "name": "Empik",
    "category": "shop",
    "coordinates": [
      19.1052264,
      50.318749
    ],
    "address": "Będzińska 80, Katowice"
  },
  {
    "id": "osm_1828245462",
    "name": "Miejska Biblioteka Publiczna",
    "category": "library",
    "coordinates": [
      18.9955701,
      50.2335711
    ],
    "address": "Katowice"
  },
  {
    "id": "osm_1831951220",
    "name": "Żabka",
    "category": "shop",
    "coordinates": [
      18.997018,
      50.2460868
    ],
    "address": "Katowice"
  },
  {
    "id": "osm_1838730188",
    "name": "Optyka",
    "category": "shop",
    "coordinates": [
      19.0201694,
      50.2564583
    ],
    "address": "Katowice"
  },
  {
    "id": "osm_1840039824",
    "name": "Staromiejska",
    "category": "pharmacy",
    "coordinates": [
      19.0699229,
      50.3190207
    ],
    "address": "Katowice"
  },
  {
    "id": "osm_1842728629",
    "name": "McDonald's",
    "category": "restaurant",
    "coordinates": [
      19.1076896,
      50.3182013
    ],
    "address": "Katowice"
  },
  {
    "id": "osm_1842829888",
    "name": "Delta Oil Plus",
    "category": "shop",
    "coordinates": [
      19.1112504,
      50.3062952
    ],
    "address": "Katowice"
  },
  {
    "id": "osm_1848178740",
    "name": "Renault Zieba",
    "category": "shop",
    "coordinates": [
      18.9668897,
      50.2104836
    ],
    "address": "Katowice"
  },
  {
    "id": "osm_1851310381",
    "name": "Biedronka",
    "category": "shop",
    "coordinates": [
      19.0060683,
      50.304316
    ],
    "address": "Katowice"
  },
  {
    "id": "osm_1851310839",
    "name": "Extreme Bike",
    "category": "shop",
    "coordinates": [
      19.0068141,
      50.3043472
    ],
    "address": "Katowice"
  },
  {
    "id": "osm_1854772819",
    "name": "Apteka Premium-Lek",
    "category": "pharmacy",
    "coordinates": [
      19.0061989,
      50.3045558
    ],
    "address": "Katowice"
  },
  {
    "id": "osm_1854772823",
    "name": "Daniel",
    "category": "shop",
    "coordinates": [
      19.0072133,
      50.3034561
    ],
    "address": "Katowice"
  },
  {
    "id": "osm_1854772831",
    "name": "Papirus",
    "category": "shop",
    "coordinates": [
      19.0069292,
      50.3046027
    ],
    "address": "Katowice"
  },
  {
    "id": "osm_1854772832",
    "name": "Masarnia u Józefa",
    "category": "shop",
    "coordinates": [
      19.0059419,
      50.3045466
    ],
    "address": "Katowice"
  },
  {
    "id": "osm_1854772842",
    "name": "Tania odzież „Gracja”",
    "category": "shop",
    "coordinates": [
      19.007098,
      50.3038221
    ],
    "address": "Katowice"
  },
  {
    "id": "osm_1855071403",
    "name": "Miejska Biblioteka Publiczna im. Marii Nogajowej w Czeladzi Filia nr 2",
    "category": "library",
    "coordinates": [
      19.0972791,
      50.3036381
    ],
    "address": "Katowice"
  },
  {
    "id": "osm_1855071411",
    "name": "Pedagogiczna Biblioteka Wojewódzka",
    "category": "library",
    "coordinates": [
      19.0731404,
      50.3165178
    ],
    "address": "Katowice"
  },
  {
    "id": "osm_1855071417",
    "name": "Miejska Biblioteka Publiczna Filia 1",
    "category": "library",
    "coordinates": [
      19.0772162,
      50.3238367
    ],
    "address": "Katowice"
  },
  {
    "id": "osm_1861714143",
    "name": "ABM",
    "category": "shop",
    "coordinates": [
      19.138452,
      50.314604
    ],
    "address": "Zagórska 26, 42-500, Będzin"
  },
  {
    "id": "osm_1861714171",
    "name": "bakery",
    "category": "shop",
    "coordinates": [
      19.1370736,
      50.315652
    ],
    "address": "Katowice"
  },
  {
    "id": "osm_1861714194",
    "name": "convenience",
    "category": "shop",
    "coordinates": [
      19.148768,
      50.31995
    ],
    "address": "Katowice"
  },
  {
    "id": "osm_1861714195",
    "name": "Zdro-Vita",
    "category": "pharmacy",
    "coordinates": [
      19.1383035,
      50.3199801
    ],
    "address": "Katowice"
  },
  {
    "id": "osm_1866255847",
    "name": "MSH Społem",
    "category": "shop",
    "coordinates": [
      19.1092698,
      50.2398271
    ],
    "address": "Katowice"
  },
  {
    "id": "osm_1866850458",
    "name": "Warsztat Samochodowy",
    "category": "shop",
    "coordinates": [
      18.9869849,
      50.2276632
    ],
    "address": "Katowice"
  },
  {
    "id": "osm_1866856503",
    "name": "Król",
    "category": "shop",
    "coordinates": [
      18.9743628,
      50.2258894
    ],
    "address": "Katowice"
  },
  {
    "id": "osm_1866856504",
    "name": "Concord MDJ",
    "category": "shop",
    "coordinates": [
      18.9751992,
      50.2258919
    ],
    "address": "Katowice"
  },
  {
    "id": "osm_1866856505",
    "name": "Elżbieta - Salon Urody",
    "category": "shop",
    "coordinates": [
      18.9671132,
      50.2253084
    ],
    "address": "Katowice"
  },
  {
    "id": "osm_1866856506",
    "name": "Mięso Wędliny",
    "category": "shop",
    "coordinates": [
      18.9676684,
      50.2254518
    ],
    "address": "Katowice"
  },
  {
    "id": "osm_1866856508",
    "name": "Piekarek",
    "category": "shop",
    "coordinates": [
      18.9677226,
      50.2254645
    ],
    "address": "Katowice"
  },
  {
    "id": "osm_1866856510",
    "name": "Geers",
    "category": "shop",
    "coordinates": [
      18.9751087,
      50.2258939
    ],
    "address": "Katowice"
  },
  {
    "id": "osm_1866856511",
    "name": "Zieleniaki",
    "category": "shop",
    "coordinates": [
      18.9749267,
      50.2258977
    ],
    "address": "Katowice"
  },
  {
    "id": "osm_1866856535",
    "name": "24h",
    "category": "shop",
    "coordinates": [
      18.9677669,
      50.2255084
    ],
    "address": "Katowice"
  },
  {
    "id": "osm_1867993131",
    "name": "TeKlimaty",
    "category": "restaurant",
    "coordinates": [
      19.0718672,
      50.3295075
    ],
    "address": "Wojkowicka 13, 41-250, Czeladź"
  },
  {
    "id": "osm_1868232239",
    "name": "Da Grasso",
    "category": "restaurant",
    "coordinates": [
      18.9711432,
      50.2264049
    ],
    "address": "Panewnicka 28, Katowice"
  },
  {
    "id": "osm_1868232240",
    "name": "U Pajdy",
    "category": "restaurant",
    "coordinates": [
      18.9761416,
      50.2258816
    ],
    "address": "Katowice"
  },
  {
    "id": "osm_1868232241",
    "name": "Nazar Kebab",
    "category": "restaurant",
    "coordinates": [
      18.9650952,
      50.2250742
    ],
    "address": "Katowice"
  },
  {
    "id": "osm_1868232243",
    "name": "Burgi",
    "category": "restaurant",
    "coordinates": [
      18.9748232,
      50.2258525
    ],
    "address": "Katowice"
  },
  {
    "id": "osm_1868232247",
    "name": "lottery",
    "category": "shop",
    "coordinates": [
      18.9716174,
      50.2263818
    ],
    "address": "Katowice"
  },
  {
    "id": "osm_1868232275",
    "name": "Cukiernia",
    "category": "restaurant",
    "coordinates": [
      18.9654438,
      50.2249496
    ],
    "address": "Katowice"
  },
  {
    "id": "osm_1878720821",
    "name": "Piekarnia Bittmann",
    "category": "shop",
    "coordinates": [
      18.9696792,
      50.2287705
    ],
    "address": "Katowice"
  },
  {
    "id": "osm_1878720837",
    "name": "Żabka",
    "category": "shop",
    "coordinates": [
      18.9604586,
      50.2368721
    ],
    "address": "Katowice"
  },
  {
    "id": "osm_1878751144",
    "name": "Odido",
    "category": "shop",
    "coordinates": [
      18.9694606,
      50.2267496
    ],
    "address": "Księdza biskupa Teodora Bromboszcza 1, 40-723, Katowice"
  },
  {
    "id": "osm_1878751146",
    "name": "Karczma pod Strzechom",
    "category": "restaurant",
    "coordinates": [
      18.9786048,
      50.2308385
    ],
    "address": "Jakuba Grzyśki 13, 40-560, Katowice"
  },
  {
    "id": "osm_1878751151",
    "name": "Julia",
    "category": "shop",
    "coordinates": [
      18.9723191,
      50.228051
    ],
    "address": "Katowice"
  },
  {
    "id": "osm_1878751292",
    "name": "Żabka",
    "category": "shop",
    "coordinates": [
      18.9767455,
      50.2319628
    ],
    "address": "Katowice"
  },
  {
    "id": "osm_1879464131",
    "name": "Salon Fryzjerski \"Halina\"",
    "category": "shop",
    "coordinates": [
      19.2012686,
      50.3247571
    ],
    "address": "Katowice"
  },
  {
    "id": "osm_1880710973",
    "name": "Marszal",
    "category": "shop",
    "coordinates": [
      18.9836396,
      50.2362604
    ],
    "address": "Katowice"
  },
  {
    "id": "osm_1880713008",
    "name": "Sławomir Durek",
    "category": "shop",
    "coordinates": [
      18.984117,
      50.2347644
    ],
    "address": "Katowice"
  },
  {
    "id": "osm_1883394011",
    "name": "Od A do Z",
    "category": "shop",
    "coordinates": [
      19.1341085,
      50.2955039
    ],
    "address": "Katowice"
  },
  {
    "id": "osm_1883394021",
    "name": "U Króla",
    "category": "shop",
    "coordinates": [
      19.1302565,
      50.2934423
    ],
    "address": "Czeladzka 16, 41-205, Sosnowiec"
  },
  {
    "id": "osm_1883394028",
    "name": "Żabka",
    "category": "shop",
    "coordinates": [
      19.1341787,
      50.2959513
    ],
    "address": "Katowice"
  },
  {
    "id": "osm_1883622494",
    "name": "Ziarenko",
    "category": "shop",
    "coordinates": [
      18.9843925,
      50.2749692
    ],
    "address": "Katowice"
  },
  {
    "id": "osm_1883622496",
    "name": "Evolution",
    "category": "shop",
    "coordinates": [
      18.984713,
      50.2750561
    ],
    "address": "Katowice"
  },
  {
    "id": "osm_1883622498",
    "name": "kiosk",
    "category": "shop",
    "coordinates": [
      18.9845387,
      50.2749199
    ],
    "address": "Katowice"
  },
  {
    "id": "osm_1883622500",
    "name": "Portofino",
    "category": "restaurant",
    "coordinates": [
      18.9847479,
      50.2750141
    ],
    "address": "Katowice"
  },
  {
    "id": "osm_1883625679",
    "name": "Żabka",
    "category": "shop",
    "coordinates": [
      18.9834095,
      50.2748444
    ],
    "address": "Katowice"
  },
  {
    "id": "osm_1883625681",
    "name": "kiosk",
    "category": "shop",
    "coordinates": [
      18.9838399,
      50.2749293
    ],
    "address": "Katowice"
  },
  {
    "id": "osm_1883625682",
    "name": "Honesta",
    "category": "shop",
    "coordinates": [
      18.9835167,
      50.2749035
    ],
    "address": "Katowice"
  },
  {
    "id": "osm_1883625683",
    "name": "Duży Ben",
    "category": "shop",
    "coordinates": [
      18.9836992,
      50.274919
    ],
    "address": "Katowice"
  },
  {
    "id": "osm_1884384304",
    "name": "Belvedere",
    "category": "restaurant",
    "coordinates": [
      19.1434011,
      50.2993169
    ],
    "address": "Katowice"
  },
  {
    "id": "osm_1886239423",
    "name": "Wojtek Langos",
    "category": "shop",
    "coordinates": [
      19.010015,
      50.2612547
    ],
    "address": "Katowice"
  },
  {
    "id": "osm_1886239448",
    "name": "hairdresser",
    "category": "shop",
    "coordinates": [
      19.0115087,
      50.2605955
    ],
    "address": "Katowice"
  },
  {
    "id": "osm_1886727179",
    "name": "Smażalnia ryb \"Z IKRĄ\"",
    "category": "restaurant",
    "coordinates": [
      19.0120809,
      50.2597341
    ],
    "address": "Plac Wolności 9, 40-078, Katowice"
  },
  {
    "id": "osm_1886727296",
    "name": "Icy&Spicy",
    "category": "restaurant",
    "coordinates": [
      19.0104759,
      50.260838
    ],
    "address": "Gliwicka 10, Katowice"
  },
  {
    "id": "osm_1887368686",
    "name": "Anteny",
    "category": "shop",
    "coordinates": [
      19.0119759,
      50.2598644
    ],
    "address": "Plac Wolności 9, 40-078, Katowice"
  },
  {
    "id": "osm_1887368695",
    "name": "Alarmy & Audio",
    "category": "shop",
    "coordinates": [
      19.0116107,
      50.2603367
    ],
    "address": "Gliwicka 4, Katowice"
  },
  {
    "id": "osm_1887834164",
    "name": "Karczma Pod Młynem",
    "category": "restaurant",
    "coordinates": [
      19.0697397,
      50.2752371
    ],
    "address": "Katowice"
  },
  {
    "id": "osm_1888239265",
    "name": "Miejska Biblioteka Publiczna - filia nr 20",
    "category": "library",
    "coordinates": [
      19.0683644,
      50.278167
    ],
    "address": "Strzelców Bytomskich 21, Katowice"
  },
  {
    "id": "osm_1888240341",
    "name": "Model",
    "category": "shop",
    "coordinates": [
      19.0799252,
      50.269429
    ],
    "address": "Katowice"
  },
  {
    "id": "osm_1888245264",
    "name": "McDonald's",
    "category": "restaurant",
    "coordinates": [
      19.0666106,
      50.2717533
    ],
    "address": "Katowice"
  },
  {
    "id": "osm_1888312471",
    "name": "Gardena",
    "category": "restaurant",
    "coordinates": [
      19.0046678,
      50.2990123
    ],
    "address": "Katowice"
  },
  {
    "id": "osm_1888312476",
    "name": "Studio Figura",
    "category": "shop",
    "coordinates": [
      19.0042343,
      50.2984926
    ],
    "address": "Katowice"
  },
  {
    "id": "osm_1888312479",
    "name": "ZEGARmistrz",
    "category": "shop",
    "coordinates": [
      19.0045717,
      50.2990025
    ],
    "address": "Katowice"
  },
  {
    "id": "osm_1888313349",
    "name": "SkinFade Barbershop",
    "category": "shop",
    "coordinates": [
      19.0044265,
      50.2989867
    ],
    "address": "Katowice"
  },
  {
    "id": "osm_1888313380",
    "name": "Malu Malu",
    "category": "shop",
    "coordinates": [
      19.0048474,
      50.2990254
    ],
    "address": "Katowice"
  },
  {
    "id": "osm_1888313398",
    "name": "złotnik",
    "category": "shop",
    "coordinates": [
      19.004497,
      50.2989941
    ],
    "address": "Katowice"
  },
  {
    "id": "osm_1888596540",
    "name": "Piekarnia \"Kłos\"",
    "category": "shop",
    "coordinates": [
      19.0678365,
      50.2768871
    ],
    "address": "Generała Henryka le Ronda 9, Katowice"
  },
  {
    "id": "osm_1888607414",
    "name": "Piąta Strona Świata",
    "category": "restaurant",
    "coordinates": [
      19.0803441,
      50.2691996
    ],
    "address": "Katowice"
  },
  {
    "id": "osm_1888609170",
    "name": "Marbila",
    "category": "shop",
    "coordinates": [
      19.0811394,
      50.268757
    ],
    "address": "Katowice"
  },
  {
    "id": "osm_1888613895",
    "name": "Salus",
    "category": "pharmacy",
    "coordinates": [
      19.0808171,
      50.268678
    ],
    "address": "Katowice"
  },
  {
    "id": "osm_1890402846",
    "name": "Akademicka",
    "category": "pharmacy",
    "coordinates": [
      18.9758686,
      50.2760568
    ],
    "address": "Katowice"
  },
  {
    "id": "osm_1890410247",
    "name": "prorowery.pl",
    "category": "shop",
    "coordinates": [
      19.0629947,
      50.2685804
    ],
    "address": "Katowice"
  },
  {
    "id": "osm_1890411500",
    "name": "RTV Euro AGD",
    "category": "shop",
    "coordinates": [
      19.0614283,
      50.2675723
    ],
    "address": "Katowice"
  },
  {
    "id": "osm_1891394139",
    "name": "copyshop",
    "category": "shop",
    "coordinates": [
      19.0803713,
      50.2696664
    ],
    "address": "Katowice"
  },
  {
    "id": "osm_1891553408",
    "name": "U Gosi",
    "category": "shop",
    "coordinates": [
      19.0716912,
      50.2736826
    ],
    "address": "Katowice"
  },
  {
    "id": "osm_1891570741",
    "name": "Paruzel",
    "category": "shop",
    "coordinates": [
      19.0751372,
      50.2709468
    ],
    "address": "Katowice"
  },
  {
    "id": "osm_1891573169",
    "name": "Eskulap",
    "category": "pharmacy",
    "coordinates": [
      19.0751625,
      50.2712398
    ],
    "address": "Generała Józefa Hallera 40, 40-321, Katowice"
  },
  {
    "id": "osm_1891698156",
    "name": "Odido. Sklep wielobranżowy",
    "category": "shop",
    "coordinates": [
      19.0737622,
      50.2718939
    ],
    "address": "Katowice"
  },
  {
    "id": "osm_1891788082",
    "name": "Bawaria Motors",
    "category": "shop",
    "coordinates": [
      19.0634207,
      50.270033
    ],
    "address": "Katowice"
  },
  {
    "id": "osm_1891788162",
    "name": "Lion Motors Katowice",
    "category": "shop",
    "coordinates": [
      19.0638006,
      50.2685075
    ],
    "address": "Katowice"
  },
  {
    "id": "osm_1891788662",
    "name": "Tesla Center Katowice",
    "category": "shop",
    "coordinates": [
      19.0646775,
      50.2707966
    ],
    "address": "Aleja Walentego Roździeńskiego 208, 40-315, Katowice"
  },
  {
    "id": "osm_1891788895",
    "name": "Lexus Katowice",
    "category": "shop",
    "coordinates": [
      19.0650508,
      50.2710438
    ],
    "address": "Katowice"
  },
  {
    "id": "osm_1892042800",
    "name": "Żabka",
    "category": "shop",
    "coordinates": [
      19.075708,
      50.2709549
    ],
    "address": "Katowice"
  },
  {
    "id": "osm_1892776848",
    "name": "Delikatesy Skarbek",
    "category": "shop",
    "coordinates": [
      19.0210059,
      50.2597116
    ],
    "address": "Adama Mickiewicza 4, 40-092, Katowice"
  },
  {
    "id": "osm_1893646539",
    "name": "Hyundai Waro",
    "category": "shop",
    "coordinates": [
      19.0681087,
      50.2720559
    ],
    "address": "Katowice"
  },
  {
    "id": "osm_1894580651",
    "name": "warsztat samochodowy Piotr Lange",
    "category": "shop",
    "coordinates": [
      19.0674455,
      50.2766109
    ],
    "address": "Katowice"
  },
  {
    "id": "osm_1895816085",
    "name": "Asko-Lublin",
    "category": "shop",
    "coordinates": [
      19.0710292,
      50.2754923
    ],
    "address": "Katowice"
  },
  {
    "id": "osm_1897273489",
    "name": "I Liceum Ogólnokształcące im. Juliusza Słowackiego",
    "category": "school",
    "coordinates": [
      18.9510483,
      50.2930163
    ],
    "address": "Katowice"
  },
  {
    "id": "osm_1900566434",
    "name": "Pizzeria MaxiPizza",
    "category": "restaurant",
    "coordinates": [
      19.0112633,
      50.2608868
    ],
    "address": "Jana III Sobieskiego 17, 40-082, Katowice"
  },
  {
    "id": "osm_1900566440",
    "name": "Oriflame",
    "category": "shop",
    "coordinates": [
      19.0102911,
      50.2632079
    ],
    "address": "Katowice"
  },
  {
    "id": "osm_1900566441",
    "name": "Państwowa Ogólnokszrałcąca Szkoła Muzyczna I st. im. Stanisława Moniuszki",
    "category": "school",
    "coordinates": [
      19.010275,
      50.262416
    ],
    "address": "Dąbrówki 9, 40-081, Katowice"
  },
  {
    "id": "osm_1900835490",
    "name": "Szkoła Policealna nr 6",
    "category": "school",
    "coordinates": [
      18.9960159,
      50.2443403
    ],
    "address": "Mikołowska 131, 40-592, Katowice"
  },
  {
    "id": "osm_1900835495",
    "name": "XVI Liceum Ogólnokształcące",
    "category": "school",
    "coordinates": [
      18.9960843,
      50.2444685
    ],
    "address": "Mikołowska 131, 40-592, Katowice"
  },
  {
    "id": "osm_1902680800",
    "name": "Apteka pod Kwiatami",
    "category": "pharmacy",
    "coordinates": [
      19.0382837,
      50.2690894
    ],
    "address": "Katowice"
  },
  {
    "id": "osm_1902680802",
    "name": "ProLine",
    "category": "shop",
    "coordinates": [
      19.0244072,
      50.2717847
    ],
    "address": "Aleja Wojciecha Korfantego 78a, 40-156, Katowice"
  },
  {
    "id": "osm_1905017298",
    "name": "Michaś",
    "category": "shop",
    "coordinates": [
      18.9771924,
      50.233636
    ],
    "address": "Katowice"
  },
  {
    "id": "osm_1905017537",
    "name": "Ruch",
    "category": "shop",
    "coordinates": [
      18.9773706,
      50.2343406
    ],
    "address": "Katowice"
  },
  {
    "id": "osm_1905017538",
    "name": "Kwintesencja smaku",
    "category": "restaurant",
    "coordinates": [
      18.9769433,
      50.2355907
    ],
    "address": "Katowice"
  },
  {
    "id": "osm_1905020842",
    "name": "Wrzos",
    "category": "shop",
    "coordinates": [
      18.9769886,
      50.2328262
    ],
    "address": "Katowice"
  },
  {
    "id": "osm_1905020843",
    "name": "Żabka",
    "category": "shop",
    "coordinates": [
      18.9774406,
      50.2343274
    ],
    "address": "Katowice"
  },
  {
    "id": "osm_1905020849",
    "name": "Ryby",
    "category": "shop",
    "coordinates": [
      18.9770315,
      50.2329152
    ],
    "address": "Katowice"
  },
  {
    "id": "osm_1905020853",
    "name": "Nasz Sklep",
    "category": "shop",
    "coordinates": [
      18.97705,
      50.2330134
    ],
    "address": "Katowice"
  },
  {
    "id": "osm_1905025001",
    "name": "U Asi",
    "category": "shop",
    "coordinates": [
      18.9784196,
      50.2318435
    ],
    "address": "Katowice"
  },
  {
    "id": "osm_1905025003",
    "name": "Żabka",
    "category": "shop",
    "coordinates": [
      18.983159,
      50.2316414
    ],
    "address": "Katowice"
  },
  {
    "id": "osm_1905025005",
    "name": "Bayer Landhaus",
    "category": "restaurant",
    "coordinates": [
      18.978153,
      50.2319005
    ],
    "address": "Tomasza 12, Katowice"
  },
  {
    "id": "osm_1905025020",
    "name": "bakery",
    "category": "shop",
    "coordinates": [
      18.977925,
      50.231847
    ],
    "address": "Katowice"
  },
  {
    "id": "osm_1905025022",
    "name": "Ruch",
    "category": "shop",
    "coordinates": [
      18.9830939,
      50.2314186
    ],
    "address": "Katowice"
  },
  {
    "id": "osm_1905027639",
    "name": "Mięso Wędliny",
    "category": "shop",
    "coordinates": [
      18.9793917,
      50.2310611
    ],
    "address": "Katowice"
  },
  {
    "id": "osm_1905027640",
    "name": "Rośliny od ręki",
    "category": "shop",
    "coordinates": [
      18.9792369,
      50.2310726
    ],
    "address": "Katowice"
  },
  {
    "id": "osm_1905027641",
    "name": "Żabka",
    "category": "shop",
    "coordinates": [
      18.9790143,
      50.2308188
    ],
    "address": "Katowice"
  },
  {
    "id": "osm_1905028011",
    "name": "Blue Eyes",
    "category": "shop",
    "coordinates": [
      18.982743,
      50.231301
    ],
    "address": "Katowice"
  },
  {
    "id": "osm_1905039173",
    "name": "convenience",
    "category": "shop",
    "coordinates": [
      18.9945541,
      50.2430289
    ],
    "address": "Katowice"
  },
  {
    "id": "osm_1911303743",
    "name": "Błyskawica",
    "category": "shop",
    "coordinates": [
      19.0130524,
      50.2604447
    ],
    "address": "Katowice"
  },
  {
    "id": "osm_1911307805",
    "name": "Marcel",
    "category": "shop",
    "coordinates": [
      19.0126044,
      50.2604781
    ],
    "address": "Katowice"
  },
  {
    "id": "osm_1911313484",
    "name": "Księgarnia Prawnicza",
    "category": "shop",
    "coordinates": [
      19.0127015,
      50.2592489
    ],
    "address": "Katowice"
  },
  {
    "id": "osm_1911376148",
    "name": "Żabka",
    "category": "shop",
    "coordinates": [
      19.1342163,
      50.2906973
    ],
    "address": "Katowice"
  },
  {
    "id": "osm_1911376802",
    "name": "Dr. Max",
    "category": "pharmacy",
    "coordinates": [
      19.1321402,
      50.2907876
    ],
    "address": "Katowice"
  },
  {
    "id": "osm_1911682269",
    "name": "Klub Muzyczny \"Źródło\"",
    "category": "restaurant",
    "coordinates": [
      19.0110374,
      50.2599428
    ],
    "address": "Katowice"
  },
  {
    "id": "osm_1911696674",
    "name": "AUTO-MAGIC FHU Robert Nowak",
    "category": "shop",
    "coordinates": [
      19.0114485,
      50.2602996
    ],
    "address": "Katowice"
  },
  {
    "id": "osm_1911800453",
    "name": "Antalya Kebab",
    "category": "restaurant",
    "coordinates": [
      19.1322359,
      50.2909143
    ],
    "address": "Katowice"
  },
  {
    "id": "osm_1912165387",
    "name": "Żabka",
    "category": "shop",
    "coordinates": [
      19.1204749,
      50.2937043
    ],
    "address": "Katowice"
  },
  {
    "id": "osm_1912167718",
    "name": "Delikatesy",
    "category": "shop",
    "coordinates": [
      19.1181869,
      50.2906961
    ],
    "address": "Katowice"
  },
  {
    "id": "osm_1912167723",
    "name": "library",
    "category": "library",
    "coordinates": [
      19.1173967,
      50.2908416
    ],
    "address": "Katowice"
  },
  {
    "id": "osm_1912780309",
    "name": "Pod Ręką",
    "category": "shop",
    "coordinates": [
      19.1428704,
      50.2883327
    ],
    "address": "Plac Tadeusza Kościuszki 7, 41-200, Sosnowiec"
  },
  {
    "id": "osm_1912831439",
    "name": "Filia nr 17",
    "category": "library",
    "coordinates": [
      19.1327924,
      50.2944183
    ],
    "address": "Katowice"
  },
  {
    "id": "osm_1912831440",
    "name": "Gemini",
    "category": "pharmacy",
    "coordinates": [
      19.1322216,
      50.2904239
    ],
    "address": "Katowice"
  },
  {
    "id": "osm_1912831466",
    "name": "bakery",
    "category": "shop",
    "coordinates": [
      19.1322069,
      50.289497
    ],
    "address": "Katowice"
  },
  {
    "id": "osm_1912831468",
    "name": "greengrocer",
    "category": "shop",
    "coordinates": [
      19.1320541,
      50.2910518
    ],
    "address": "Katowice"
  },
  {
    "id": "osm_1912831470",
    "name": "optician",
    "category": "shop",
    "coordinates": [
      19.1321428,
      50.2928507
    ],
    "address": "Katowice"
  },
  {
    "id": "osm_1912831472",
    "name": "Żabka",
    "category": "shop",
    "coordinates": [
      19.1326546,
      50.2939313
    ],
    "address": "Katowice"
  },
  {
    "id": "osm_1915933988",
    "name": "kiosk",
    "category": "shop",
    "coordinates": [
      19.135556,
      50.314316
    ],
    "address": "Katowice"
  },
  {
    "id": "osm_1916709637",
    "name": "books",
    "category": "shop",
    "coordinates": [
      19.0947688,
      50.2637562
    ],
    "address": "Katowice"
  },
  {
    "id": "osm_1916709653",
    "name": "Pod ręką",
    "category": "shop",
    "coordinates": [
      19.080573,
      50.2690603
    ],
    "address": "Generała Józefa Hallera 6, 40-322, Katowice"
  },
  {
    "id": "osm_1924416955",
    "name": "Centrum Odnowy Biologicznej PULS",
    "category": "gym",
    "coordinates": [
      19.0284849,
      50.2558572
    ],
    "address": "Katowice"
  },
  {
    "id": "osm_1925283693",
    "name": "Szkoła Policealna Nr 7",
    "category": "school",
    "coordinates": [
      19.0087904,
      50.2549316
    ],
    "address": "Raciborska 3, 40-074, Katowice"
  },
  {
    "id": "osm_1925283714",
    "name": "Technikum Nr 2",
    "category": "school",
    "coordinates": [
      19.0085483,
      50.2549247
    ],
    "address": "Raciborska 3, 40-074, Katowice"
  },
  {
    "id": "osm_1925967670",
    "name": "car_repair",
    "category": "shop",
    "coordinates": [
      18.9852941,
      50.2273622
    ],
    "address": "Katowice"
  },
  {
    "id": "osm_1927559874",
    "name": "Bibloteka Miejska filia nr 30",
    "category": "library",
    "coordinates": [
      19.0250156,
      50.2498959
    ],
    "address": "Rybnicka 11, 40-038, Katowice"
  },
  {
    "id": "osm_1927559913",
    "name": "I Liceum Ogólnokształcące z Oddziałami Dwujęzycznymi",
    "category": "school",
    "coordinates": [
      19.0221394,
      50.2495285
    ],
    "address": "Henryka Sienkiewicza 74, 40-039, Katowice"
  },
  {
    "id": "osm_1927559993",
    "name": "Zespół Szkół Ogólnokształcących nr 1 im. Mikołaja Kopernika",
    "category": "school",
    "coordinates": [
      19.0221813,
      50.2498109
    ],
    "address": "Henryka Sienkiewicza 74, 40-039, Katowice"
  },
  {
    "id": "osm_1927592611",
    "name": "Lewiatan",
    "category": "shop",
    "coordinates": [
      19.0738291,
      50.3187047
    ],
    "address": "Katowice"
  },
  {
    "id": "osm_1927592613",
    "name": "Kwiaty Upominki",
    "category": "shop",
    "coordinates": [
      19.0730942,
      50.3183454
    ],
    "address": "Katowice"
  },
  {
    "id": "osm_1927592623",
    "name": "Milano",
    "category": "shop",
    "coordinates": [
      19.0764591,
      50.3166984
    ],
    "address": "Katowice"
  },
  {
    "id": "osm_1927592633",
    "name": "Flor-Dekor",
    "category": "shop",
    "coordinates": [
      19.0731089,
      50.318412
    ],
    "address": "Katowice"
  },
  {
    "id": "osm_1927592635",
    "name": "Trol",
    "category": "restaurant",
    "coordinates": [
      19.0744366,
      50.3179239
    ],
    "address": "Katowice"
  },
  {
    "id": "osm_1927592636",
    "name": "Zdrowit",
    "category": "pharmacy",
    "coordinates": [
      19.0708689,
      50.3217773
    ],
    "address": "Katowice"
  },
  {
    "id": "osm_1927592641",
    "name": "Technika grzewcza i sanitarna",
    "category": "shop",
    "coordinates": [
      19.0733267,
      50.3187918
    ],
    "address": "Katowice"
  },
  {
    "id": "osm_1927592656",
    "name": "Kwiaciarnia",
    "category": "shop",
    "coordinates": [
      19.0739528,
      50.3179856
    ],
    "address": "Katowice"
  },